景点名称（中文）,景点名称（英文）,省,市,区,地址,经度,纬度,景区分类,附近交通,开放时间,门票价格,购票方式,建议游览时长,最佳游览日期,景区介绍,适合人群,景区卖点,景点照片
外滩,The Bund,上海市,上海市,黄浦区,上海市黄浦区中山东一路,121.4737,31.2304,历史文化街区、城市景观,地铁2号线、10号线南京东路站,全天开放,免费,无需门票，部分观光项目需单独购票,2-3小时,3-5月、9-11月,外滩位于上海市中心黄浦区的黄浦江畔，是最具上海城市象征意义的景点之一。长1.5公里，南起延安东路，北至苏州河上的外白渡桥，东面即黄浦江，西面是旧上海金融、外贸机构的集中地。外滩矗立着52幢风格迥异的古典复兴大楼，素有外滩万国建筑博览群之称，是中国近现代重要史迹及代表性建筑，上海重要的地标之一。,家庭、情侣、历史文化爱好者、摄影爱好者,"Iconic riverfront skyline, Historic colonial architecture, Stunning night views, Cultural heritage landmark, Vibrant river cruise experience",
豫园,Yu Garden,上海市,上海市,黄浦区,上海市黄浦区安仁街132号,121.4814,31.2304,古典园林,地铁10号线豫园站,09:00-17:30（17:00停止入园）,旺季（每年4月1日至6月30日，9月1日至11月30日）成人40元，儿童20元；淡季（每年12月1日至次年3月31日，7月1日至8月31日）成人30元，儿童15元,可通过豫园官方小程序、现场售票窗口或第三方旅游平台购买,2-3小时,3-5月、9-11月,豫园位于上海老城厢东北部，北靠福佑路，东临安仁街，西南与老城隍庙、豫园商城相连，是江南古典园林，始建于明代嘉靖、万历年间，占地三十余亩。园内有江南三大名石之称的玉玲珑、1853年小刀会起义的指挥所点春堂，园侧有城隍庙及商店街等游客景点。豫园在1961年开始对公众开放，1982年被国务院列为全国重点文物保护单位。,家庭游客、文化爱好者、摄影爱好者、历史研究者,Ancient classical garden with unique rock formations; Rich cultural heritage and historical sites; Traditional Chinese architecture and landscaping; Perfect place to experience local Shanghai culture; Beautiful lantern displays during festivals,
陆家嘴,Lujiazui,上海市,上海市,浦东新区,上海市浦东新区世纪大道1号,121.50735,31.230416,现代都市景观,地铁2号线、4号线、6号线、9号线世纪大道站；地铁2号线陆家嘴站,全天开放,免费（部分景点如上海中心大厦观光厅需购票）,现场购票或线上平台预约,3-4小时,四季皆宜，夜晚灯光秀推荐18:00-22:00,陆家嘴是中国上海的金融中心，拥有众多摩天大楼，包括上海中心大厦、环球金融中心和金茂大厦，构成了壮观的城市天际线。这里不仅是商业枢纽，也是著名的旅游景点，游客可以乘坐黄浦江观光游船，参观上海海洋水族馆，漫步滨江大道欣赏外滩风光。,家庭出游、商务人士、摄影爱好者、都市观光游客,Iconic skyline with supertall skyscrapers; Breathtaking night light shows; World-class financial hub; River cruises with Bund views; Family-friendly attractions like aquariums,
东方明珠,Oriental Pearl Tower,上海市,上海市,浦东新区,上海市浦东新区世纪大道1号,121.506377,31.239642,现代建筑/城市地标,地铁2号线陆家嘴站,09:00-21:30（停止售票时间21:00）,第二球+陈列馆:199元;三球联票:220元;太空舱+上球体+下球体+陈列馆:359元,官方网站、微信公众号、现场售票窗口、第三方旅游平台,2-3小时,全年皆宜，夜晚景观更佳,东方明珠广播电视塔是上海的标志性文化景观之一，塔高约468米，毗邻黄浦江，与外滩隔江相望。该建筑于1991年7月30日动工，1994年11月18日正式对外开放。塔内设有太空舱、旋转餐厅、上海城市历史发展陈列馆等景观和设施，是集都市观光、时尚餐饮、购物娱乐、历史陈列、浦江游览、会展演出等多功能于一体的旅游综合体。,家庭出游、情侣约会、摄影爱好者、历史文化爱好者,Iconic skyline views; Revolving fine dining; Interactive history museum; Dazzling night shows; Riverfront convenience,
武康路,Wukang Road,上海市,上海市,徐汇区,上海市徐汇区武康路,121.4439,31.2164,历史文化街区,地铁10号线上海图书馆站、地铁11号线交通大学站,全天开放,免费,无需购票,2-3小时,秋季（10-11月）,武康路位于上海市徐汇区，原名福开森路，始建于1907年，是上海最具特色的马路之一。这里保留了众多历史建筑，包括西班牙式、法国文艺复兴式等风格的老洋房，如武康大楼、巴金故居、黄兴故居等，被誉为“浓缩了上海近代百年历史”的“名人路”。道路两旁梧桐成荫，充满了浓郁的老上海风情，是散步、拍照和感受上海历史文化的绝佳去处。,历史文化爱好者、摄影爱好者、休闲散步人群,"Historic old buildings, Celebrity former residences, French Concession charm, Tree-lined scenic road, Authentic Shanghai vibe",
田子坊,Tianzifang,上海市,上海市,黄浦区,上海市黄浦区泰康路210弄,121.4816,31.2167,历史文化街区,地铁9号线打浦桥站1号口,全天开放,免费,无需购票,2-3小时,3-5月、9-11月,田子坊是由上海特有的石库门建筑群改建而成的创意产业聚集区，保留了老上海的弄堂风情，同时融入了现代艺术元素，拥有众多画廊、工作室、咖啡馆和特色小店，是上海文艺气息最浓厚的地标之一。,文艺青年、摄影爱好者、历史文化爱好者,"Shikumen architecture with modern art vibe,Boutique galleries and craft shops,Authentic Shanghai lane culture,Cozy cafes and local snack stalls,Ideal spot for photography and art exploration",
黄浦江游船,Huangpu River Cruise,上海市,上海市,黄浦区,中山东二路501号十六铺码头,121.4902,31.2304,水上观光,地铁10号线豫园站、地铁2号线南京东路站,10:00-22:00（具体航班时间以当日船班为准）,100-300元/人（根据船型和套餐不同有所差异）,可通过官方网站、微信公众号、现场售票窗口或各大旅游平台购票,1-2小时,3-5月、9-11月,黄浦江游船是上海标志性的水上观光项目，游客可乘坐游船游览上海的母亲河——黄浦江，欣赏外滩万国建筑博览群、陆家嘴摩天大楼群等上海城市景观，感受上海的历史与现代交融的独特魅力。,家庭、情侣、朋友、商务人士,"['Iconic skyline views', 'Day & night cruise options', 'Historical & modern contrast', 'Onboard dining experiences', 'Photo-worthy landmarks']",
上海博物馆,Shanghai Museum,上海市,上海市,黄浦区,上海市黄浦区人民大道201号,121.4809,31.2304,博物馆,地铁1、2、8号线人民广场站,9:00-17:00（16:00停止入馆，周一闭馆，法定节假日除外）,免费,现场或官方公众号预约,3-4小时,全年适宜,"上海博物馆创建于1952年，是一座大型的中国古代艺术博物馆，馆藏文物近百万件，其中精品文物12万件，尤以青铜器、陶瓷器、书法、绘画为特色。博物馆建筑造型寓意""天圆地方""，是上海的文化地标之一。",历史文化爱好者、家庭、学生,"World-renowned bronze collection, Millennium-spanning ceramics, Precious calligraphy and paintings, Unique ""round sky, square earth"" architecture, Free admission for all",
静安寺,Jing'an Temple,上海市,上海市,静安区,上海市静安区南京西路1686号,121.459,31.236,宗教寺庙,地铁2号线、7号线静安寺站,7:30-17:00（香期4:30-17:00）,50元,现场购票或线上平台预约,1-2小时,全年,静安寺是上海著名的古刹，始建于三国孙吴赤乌十年（247年），是上海历史最悠久的佛寺之一。寺内建筑风格融合了藏传佛教和汉传佛教特色，主要建筑有大雄宝殿、天王殿、三圣殿等。寺内还藏有珍贵的佛教文物，如明代的释迦牟尼佛像、清代的玉佛等。,宗教文化爱好者、历史爱好者、游客,"A millennium-old Buddhist temple, A peaceful oasis in downtown Shanghai, Unique fusion of Tibetan and Han Buddhist architecture, Home to precious ancient Buddhist relics, Centrally located with easy access",
朱家角古镇,Zhujiajiao Ancient Town,上海市,上海市,青浦区,上海市青浦区朱家角镇新风路美周路交界处,121.0833,31.0500,古镇水乡,地铁17号线朱家角站,全天开放（部分景点8:30-16:30）,免费（部分景点联票60元）,景区门口或线上平台购买,4-6小时,3-5月、9-11月,"朱家角古镇位于上海市青浦区，是上海四大历史文化名镇之一，拥有1700多年历史。古镇内河道纵横，明清建筑林立，保留了城隍庙、放生桥、课植园等众多历史遗迹，素有""上海威尼斯""之称。",家庭出游、历史文化爱好者、摄影爱好者,"1700-year-old water town charm, Well-preserved Ming & Qing architecture, Scenic river cruises, Authentic local snacks, Historic Chenghuang Temple",
上海迪士尼乐园,Shanghai Disney Resort,上海市,上海市,浦东新区,上海市浦东新区川沙新镇黄赵路310号,121.7800,31.1400,主题乐园,11号线迪士尼站,上午 9:00 - 晚上 8:30（具体时间以官方公告为准）,标准票 575元-799元，儿童/老人票 431元-599元（根据不同日期浮动）,官方网站、官方APP、现场售票窗口,1天,春秋季节（3-5月、9-11月）,上海迪士尼乐园是中国内地首座迪士尼主题乐园，包含米奇大街、奇想花园、探险岛、宝藏湾、明日世界、梦幻世界和迪士尼·皮克斯玩具总动员七大主题园区，拥有众多全球首发游乐项目和精彩的现场演出。,家庭、儿童、迪士尼粉丝、主题乐园爱好者,"1. World's largest Disney castle
2. First pirate-themed land
3. Chinese cultural elements integrated
4. Year-round themed events
5. Diverse dining & shopping",
新天地,Xintiandi,上海市,上海市,黄浦区,黄浦区太仓路181弄,121.480,31.227,历史文化街区,地铁10/13号线新天地站,全天开放,免费,无需购票,2-3小时,全年皆宜，夜晚更佳,以上海石库门建筑旧区为基础改造的集餐饮、商业、娱乐、文化于一体的休闲步行街，是上海时尚地标之一,所有人群,"Shikumen lane style, East-West cultural fusion, Fashion trend hub, Unique dining experience, Nightlife hotspot",
天门山,Tianmen Mountain,湖南省,张家界市,永定区,湖南省张家界市永定区天门山索道站,110.4708,29.1897,山岳型自然风景区,张家界站（需转乘景区专线）,08:00-18:00（旺季3月-11月）；08:30-17:30（淡季12月-2月）,成人票275元（含索道、环保车）；优惠票144元,景区官网、官方微信公众号、现场售票窗口,6-8小时,4-5月、9-10月,天门山是张家界海拔最高的山，因自然奇观天门洞而得名，拥有世界最长的高山客运索道、玻璃栈道等标志性景观，被誉为湘西第一神山。,家庭出游、登山爱好者、摄影爱好者,World's longest cable car ride; Thrilling glass skywalk; Iconic Tianmen Cave; Breathtaking mountain views; Rich Taoist culture,
