景点名称,所属省份,所属地级市,所属区县,所属区域,详细地址,经度,纬度,景区分类,核心分类,主题标签,景区等级,附近交通,开放时间,门票价格,是否收费,购票方式,建议游览时长,最佳游览月份,适合人群,景区介绍,景区卖点,景点照片URL
外滩,上海市,上海市,黄浦区,华东,上海市黄浦区中山东一路,121.490317,31.239703,城市观光|历史建筑,自然风光|历史文化|宗教场所,夜游,其他,地铁2号线南京东路站|地铁10号线天潼路站|公交20路|37路,全天开放,免费,免费,携程APP搜索景区名称购票 | 景区官方微信公众号预约 | 同程旅行APP在线购票,2-3小时,全年|尤其推荐夜晚,全年龄段|摄影爱好者|历史爱好者|情侣,外滩位于黄浦江畔，全长约1.5公里，是上海城市象征意义的景点，风格迥异的万国建筑群和浦江夜景是它的精华所在。外滩矗立着52幢风格迥异的古典复兴大楼，素有"万国建筑博览群"之称。,万国建筑博览群|黄浦江夜景|外白渡桥|历史建筑群|城市地标,https://you.ctrip.com/sight/shanghai2/736.html
上海迪士尼度假区,上海市,上海市,浦东新区,华东,上海市浦东新区川沙新镇黄赵路310号,121.673476,31.149483,主题乐园|亲子游乐,自然风光|主题乐园|休闲度假,亲子|徒步,其他,地铁：2号线上海北站 | 公交：976路、684路、701路 | 出租车/网约车：搜索景区名称即可到达 | 自驾：导航至'上海XX景区'，景区提供停车场,08:30-21:30,¥475起,收费,百度地图APP景区门票购买 | 景区官方微信公众号预约 | 大众点评APP搜索购票,1-2天,全年|避开节假日,亲子家庭|年轻人|迪士尼粉丝,上海迪士尼度假区是中国大陆首座迪士尼主题乐园，拥有七大主题园区：米奇大街、奇想花园、梦幻世界、探险岛、宝藏湾、明日世界和迪士尼·皮克斯玩具总动员。,中国大陆首座迪士尼|全球首创疯狂动物城|七大主题园区|花车巡游|夜光幻影秀,https://you.ctrip.com/sight/shanghai2/1412255.html
东方明珠广播电视塔,上海市,上海市,浦东新区,华东,上海市浦东新区世纪大道1号,121.499708,31.239876,城市观光|地标建筑,自然风光|历史文化|宗教场所,,其他,地铁2号线陆家嘴站|地铁14号线陆家嘴站|公交81路|82路,09:00-21:00,¥199起,收费,百度地图APP景区门票购买 | 大众点评APP搜索购票,2-3小时,全年|夜晚最佳,全年龄段|摄影爱好者|情侣|游客,东方明珠广播电视塔是上海的标志性建筑之一，高468米，是亚洲第一、世界第三的高塔。塔内有太空舱、旋转餐厅、上海城市历史发展陈列馆等景点。,5A景区|上海地标|468米高塔|360度全景|悬空观光廊|旋转餐厅,https://you.ctrip.com/sight/shanghai2/762.html
上海野生动物园,上海市,上海市,浦东新区,华东,上海市浦东新区宣桥镇南六公路178号,121.726089,31.060556,动植物园|亲子游乐,自然风光|园林公园,亲子,其他,地铁：2号线上海北站 | 公交：976路、684路、701路 | 出租车/网约车：搜索景区名称即可到达 | 自驾：导航至'上海XX景区'，景区提供停车场,09:00-17:00,¥165起,收费,飞猪APP搜索景区名称购票 | 大众点评APP搜索购票,4-6小时,春秋季节,亲子家庭|动物爱好者|学生,上海野生动物园是国家5A级旅游景区，占地约2300亩，是中国首座国家级野生动物园。园区分为车入区、步行区和水域探秘区三大区域。,5A景区|中国首座国家级野生动物园|大熊猫|金丝猴|猛兽投喂车|海狮表演,https://you.ctrip.com/sight/shanghai2/758.html
上海博物馆,上海市,上海市,黄浦区,华东,上海市黄浦区人民大道201号,121.475152,31.231722,博物馆|文化历史,自然风光|历史文化|博物馆,,其他,地铁：2号线上海北站 | 公交：976路、684路、701路 | 出租车/网约车：搜索景区名称即可到达 | 自驾：导航至'上海XX景区'，景区提供停车场,09:00-17:00（周一闭馆）,免费,免费,百度地图APP景区门票购买 | 同程旅行APP在线购票,2-4小时,全年,文化爱好者|学生|历史爱好者|艺术爱好者,上海博物馆是一座大型的中国古代艺术博物馆，馆藏珍贵文物102万余件，其中珍贵文物14万余件。馆藏文物包括青铜、陶瓷、书画、雕塑、甲骨、符印、货币、玉器、家具、织绣、漆器、竹木牙角、少数民族文物等31个门类。,国家一级博物馆|百万件文物|青铜馆|陶瓷馆|书画馆|中国古代艺术,https://you.ctrip.com/sight/shanghai2/3733.html
上海海昌海洋公园,上海市,上海市,浦东新区,华东,上海市浦东新区南汇新城镇银飞路166号,121.930556,30.916667,主题乐园|海洋馆|亲子游乐,自然风光|历史文化|园林公园,亲子|研学,其他,地铁：2号线上海北站 | 公交：976路、684路、701路 | 出租车/网约车：搜索景区名称即可到达 | 自驾：导航至'上海XX景区'，景区提供停车场,09:00-20:30,¥299起,收费,美团APP搜索景区名称预约 | 大众点评APP搜索购票,4-8小时,全年,亲子家庭|海洋爱好者|年轻人,上海海昌海洋公园被评定为国家4A级旅游景区，以海洋文化为主题，拥有《虎鲸科普秀》《海狮特快》《海豚奇缘》等十六大明星剧目；设有南极企鹅馆、海兽探秘馆等六大动物展示场馆。,4A景区|虎鲸科普秀|海豚过山车|企鹅馆|火山漂流|三万余只海洋生物,https://you.ctrip.com/sight/shanghai2/4651499.html
豫园,上海市,上海市,黄浦区,华东,上海市黄浦区福佑路168号,121.492222,31.227222,古典园林|文化历史,自然风光|历史文化|园林公园,,其他,地铁10号线豫园站|地铁14号线豫园站|公交11路|26路,09:00-16:30,¥40起,收费,大众点评APP搜索购票 | 携程APP搜索景区名称购票,2-3小时,春秋季节,文化爱好者|摄影爱好者|美食爱好者|园林爱好者,豫园是明代私人园林，始建于1559年，距今已有460余年历史。园内楼阁参差，山石峥嵘，湖光潋滟，素有"奇秀甲江南"之誉。,4A景区|明代古典园林|江南园林|玉玲珑|城隍庙小吃|九曲桥,https://you.ctrip.com/sight/shanghai2/740.html
上海海洋水族馆,上海市,上海市,浦东新区,华东,上海市浦东新区陆家嘴环路1388号1楼,121.501389,31.241667,海洋馆|亲子游乐,自然风光|现代建筑,亲子,其他,地铁2号线陆家嘴站|地铁14号线陆家嘴站|公交81路|82路,09:00-21:00,¥160起,收费,抖音APP搜索景区名称团购 | 高德地图APP景区门票预订,2-3小时,全年,亲子家庭|海洋爱好者|情侣,上海海洋水族馆位于陆家嘴金融区，紧邻东方明珠塔，是亚洲最大的海洋水族馆之一。馆内拥有世界上最长的海底隧道之一，长155米。,4A景区|亚洲最大海洋馆之一|155米海底隧道|鲨鱼展区|企鹅展区|水母展区,https://you.ctrip.com/sight/shanghai2/18722.html
城隍庙旅游区,上海市,上海市,黄浦区,华东,上海市黄浦区方浜中路249号,121.492222,31.227222,民俗文化|美食街区,自然风光|历史文化|宗教场所,美食,其他,地铁10号线豫园站|地铁14号线豫园站|公交11路|26路,全天开放,免费（豫园收费）,收费,景区官方网站在线预订 | 景区官方微信公众号预约 | 大众点评APP搜索购票,2-4小时,全年,美食爱好者|文化爱好者|游客|摄影爱好者,城隍庙旅游区坐落着豫园和上海城隍庙两个主要景点，是初到上海的游客不可错过的地方。在此可以领略到上海的民俗风情，品尝地道的上海小吃和本帮菜。,上海城隍庙|豫园商城|南翔小笼|上海老字号|传统小吃|民俗文化,https://you.ctrip.com/sight/shanghai2/5691.html
上海中心大厦上海之巅观光厅,上海市,上海市,浦东新区,华东,上海市浦东新区陆家嘴银城中路501号,121.505278,31.233611,城市观光|地标建筑,自然风光|宗教场所|现代建筑,,其他,地铁2号线陆家嘴站|地铁14号线陆家嘴站|公交81路|82路,08:30-22:00,¥180起,收费,飞猪APP搜索景区名称购票 | 景区官方微信公众号预约 | 抖音APP搜索景区名称团购,1-2小时,全年|夜晚最佳,全年龄段|摄影爱好者|建筑爱好者|游客,上海中心大厦上海之巅观光厅位于大厦第118层，高度546米，是中国第一、世界第二高的观光厅。在上海之巅360度全视角观光厅，近看东方明珠、金茂大厦、上海环球金融中心身居足下。,中国第一高楼|546米观光厅|360度全景|世界最快电梯|陆家嘴天际线,https://you.ctrip.com/sight/shanghai2/1827363.html
翁丁原始部落,云南省,临沧市,沧源佤族自治县,西南,云南省临沧市沧源佤族自治县勐角乡,100.147885,23.536159,4A级景区|原始部落,自然风光|民俗风情,,4A,公交：公交33路 | 自驾：导航至景区停车场 | 出租车/网约车：直接定位景区名称,08:00-18:00,20/人,收费,大众点评APP搜索购票 | 高德地图APP景区门票预订 | 飞猪APP搜索景区名称购票,2-3小时,全年适宜,全年龄,翁丁是中国最后一个原始部落，保留了佤族原始的民族建筑风格和纯朴的风土人情。村落周围自然风景优美，茅草屋、牛头桩、寨桩等极具特色。,中国最后一个原始部落、佤族文化、茅草屋、牛头桩,https://picsum.photos/seed/翁丁原始部落_云南省/800/600
沧源崖画,云南省,临沧市,沧源佤族自治县,西南,云南省临沧市沧源佤族自治县勐来乡,99.813843,24.298216,全国重点文物保护单位,自然风光|历史文化,,其他,公交：公交38路 | 自驾：导航至景区停车场 | 出租车/网约车：直接定位景区名称,08:00-18:00,20/人，优待票10/人,收费,百度地图APP景区门票购买 | 景区官方微信公众号预约,2-3小时,全年适宜,全年龄,沧源崖画是距今3000多年前新石器时代晚期的作品，分布在海拔2000米以上的山崖上。崖画内容丰富，有人物、动物、房屋、器物等，是研究古代佤族文化的重要资料。,3000年古崖画、新石器时代、佤族先民、历史文化,https://picsum.photos/seed/沧源崖画_云南省/800/600
玉龙雪山,云南省,丽江市,玉龙纳西族自治县,西南,云南省丽江市玉龙纳西族自治县雪花村,100.56124,26.817645,5A级景区|国家级风景名胜区,自然风光|园林公园,,5A,公交：公交22路 | 自驾：导航至景区停车场 | 出租车/网约车：直接定位景区名称 | 景区接驳车/观光车,06:00-18:00,进山费100/人，索道票另计（大索道140/人）,收费,百度地图APP景区门票购买 | 飞猪APP搜索景区名称购票 | 高德地图APP景区门票预订,4-8小时,全年适宜,全年龄,玉龙雪山是纳西族心中的神山，主峰扇子陡海拔5596米，终年积雪。景区有冰川公园、蓝月谷、云杉坪等景点，可乘坐索道直达4506米的冰川公园。,纳西神山、现代海洋性冰川、蓝月谷、《印象丽江》演出,https://picsum.photos/seed/玉龙雪山_云南省/800/600
束河古镇,云南省,丽江市,古城区,西南,云南省丽江市古城区束河路束河古镇牌坊内,99.973068,26.963364,4A级景区|历史文化名镇,历史文化,,4A,公交：公交4路 | 自驾：导航至景区停车场 | 出租车/网约车：直接定位景区名称,全天开放,30/人（实际执行中常免费）,收费,携程APP搜索景区名称购票 | 景区官方网站在线预订,3-4小时,全年适宜,全年龄,束河古镇位于丽江古城西北4公里处，是茶马古道上的重要驿站。古镇比大研古城更安静古朴，有青龙桥、九鼎龙潭等古迹，是体验茶马古道文化的好地方。,茶马古道驿站、纳西民居、青龙桥、比古城更宁静,https://picsum.photos/seed/束河古镇_云南省/800/600
腾冲火山热海旅游区,云南省,保山市,腾冲市,西南,云南省保山市腾冲市清水乡热海景区,99.079866,25.138808,5A级景区|地热地质公园,自然风光|博物馆|园林公园,康养,5A,公交：公交45路 | 自驾：导航至景区停车场 | 出租车/网约车：直接定位景区名称 | 景区接驳车/观光车,08:00-19:00,热海景区50/人，火山景区35/人,收费,百度地图APP景区门票购买 | 景区官方微信公众号预约 | 携程APP搜索景区名称购票,4-6小时,全年适宜,全年龄,腾冲火山热海是中国三大地热区之一，有"地热博物馆"之称。热海景区内有大小气泉、温泉群80余处，大滚锅水温高达96.6℃。火山景区有97座火山体。,5A级景区、地热奇观、大滚锅、火山地质、温泉养生,https://picsum.photos/seed/腾冲火山热海旅游区_云南省/800/600
和顺古镇,云南省,保山市,腾冲市,西南,云南省保山市腾冲市和顺镇,99.428872,25.610109,4A级景区|历史文化名镇,历史文化,,4A,公交：公交28路 | 自驾：导航至景区停车场 | 出租车/网约车：直接定位景区名称,全天开放,55/人,收费,大众点评APP搜索购票 | 同程旅行APP在线购票,3-4小时,全年适宜,全年龄,和顺古镇是云南著名的侨乡，有600多年历史。古镇保存完好，有图书馆、文昌宫、艾思奇故居等古迹，是中原文化与边地文化融合的典范。,中国第一乡村图书馆、侨乡文化、徽派建筑、侨乡风情,https://picsum.photos/seed/和顺古镇_云南省/800/600
大理古城,云南省,大理白族自治州,大理市,西南,云南省大理白族自治州大理市一塔路42号,100.391032,25.942435,4A级景区|国家历史文化名城,自然风光|历史文化,,4A,公交：公交29路 | 自驾：导航至景区停车场 | 出租车/网约车：直接定位景区名称,全天开放,免费,免费,百度地图APP景区门票购买 | 抖音APP搜索景区名称团购 | 携程APP搜索景区名称购票,1-2天,全年适宜,全年龄,大理古城始建于明洪武十五年，有600多年历史。古城内有文献楼、五华楼、洋人街等景点，体现了白族传统文化。苍山洱海环抱，风景秀丽。,国家历史文化名城、白族风情、洋人街、苍山洱海,https://picsum.photos/seed/大理古城_云南省/800/600
崇圣寺三塔,云南省,大理白族自治州,大理市,西南,云南省大理白族自治州大理市崇圣寺三塔文化旅游区,100.554276,25.405056,5A级景区|古建筑,历史文化|宗教场所|现代建筑,,5A,公交：公交14路 | 自驾：导航至景区停车场 | 出租车/网约车：直接定位景区名称,08:00-19:00,75/人,收费,同程旅行APP在线购票 | 高德地图APP景区门票预订 | 景区官方微信公众号预约,2-3小时,全年适宜,全年龄,崇圣寺三塔是大理"文献名邦"的象征，主塔千寻塔高69.13米，建于唐代。三塔鼎足而立，气势恢宏，是云南古代历史文化的象征。,5A级景区、大理地标、唐代古塔、三塔倒影,https://picsum.photos/seed/崇圣寺三塔_云南省/800/600
苍山洱海,云南省,大理白族自治州,大理市,西南,云南省大理白族自治州大理市,99.849672,26.074349,国家级风景名胜区|自然保护区,自然风光|宗教场所,,其他,公交：公交45路 | 自驾：导航至景区停车场 | 出租车/网约车：直接定位景区名称 | 景区接驳车/观光车,全天开放,洱海免费，苍山索道另收费,收费,高德地图APP景区门票预订 | 同程旅行APP在线购票,1-2天,全年适宜,全年龄,苍山洱海是大理"风花雪月"四景之首。苍山有十九峰十八溪，洱海是云南第二大高原湖泊。可乘船游洱海、登苍山观洱海全景，感受大理风光。,风花雪月、高原湖泊、苍山十九峰、洱海骑行,https://picsum.photos/seed/苍山洱海_云南省/800/600
一寨两国,云南省,德宏傣族景颇族自治州,瑞丽市,西南,云南省德宏傣族景颇族自治州瑞丽市姐相乡银井村,98.164316,24.665608,3A级景区|边境奇观,宗教场所|民俗风情,,3A,公交：公交14路 | 自驾：导航至景区停车场 | 出租车/网约车：直接定位景区名称,08:00-19:00,30/人,收费,高德地图APP景区门票预订 | 携程APP搜索景区名称购票 | 百度地图APP景区门票购买,2-3小时,全年适宜,全年龄,一寨两国位于中缅边境，国境线从村寨中央蜿蜒划过，是典型的"一寨两国"边境地区。71号界碑矗立寨中，可体验"一秋千荡两国"的独特乐趣。,中缅边境、一寨两国、71号界碑、边境风情,https://picsum.photos/seed/一寨两国_云南省/800/600
莫里热带雨林,云南省,德宏傣族景颇族自治州,瑞丽市,西南,云南省德宏傣族景颇族自治州瑞丽市302国道,98.837221,23.953864,4A级景区|热带雨林,自然风光|宗教场所|休闲度假,康养,4A,公交：公交31路 | 自驾：导航至景区停车场 | 出租车/网约车：直接定位景区名称,08:30-18:30,35/人,收费,百度地图APP景区门票购买 | 大众点评APP搜索购票,3-4小时,全年适宜,全年龄,莫里热带雨林因秀丽奇异的热带雨林景观及佛教圣地名闻遐迩。相传佛祖曾在此温泉旁戒斋沐浴，留下巨大足印。景区内有瀑布、温泉、热带雨林等景观。,热带雨林、佛教圣地、瀑布温泉、负氧离子,https://picsum.photos/seed/莫里热带雨林_云南省/800/600
勐焕银塔,云南省,德宏傣族景颇族自治州,芒市,西南,云南省德宏傣族景颇族自治州芒市仙池路58号,98.549813,24.072366,4A级景区|佛教建筑,宗教场所|现代建筑|城市观光,摄影|夜游,4A,公交：公交18路 | 自驾：导航至景区停车场 | 出租车/网约车：直接定位景区名称,08:00-23:00,40/人,收费,百度地图APP景区门票购买 | 高德地图APP景区门票预订 | 抖音APP搜索景区名称团购,2-3小时,全年适宜,全年龄,勐焕银塔是芒市的标志性建筑，与勐焕大金塔遥相呼应。银塔通体洁白，在蓝天白云下格外耀眼，是拍照打卡的热门地点，夜景尤为壮观。,芒市地标、银塔夜景、佛教文化、拍照打卡,https://picsum.photos/seed/勐焕银塔_云南省/800/600
丙中洛,云南省,怒江傈僳族自治州,贡山独龙族怒族自治县,西南,云南省怒江傈僳族自治州贡山独龙族怒族自治县丙中洛镇,98.375569,26.028196,3A级景区|峡谷风光,自然风光,,3A,公交：公交10路 | 自驾：导航至景区停车场 | 出租车/网约车：直接定位景区名称,全天开放,50/人,收费,景区官方网站在线预订 | 飞猪APP搜索景区名称购票 | 大众点评APP搜索购票,1-2天,全年适宜,全年龄,丙中洛位于"三江并流"核心区，是怒江峡谷深处难得一见的开阔台地。这里有怒江第一湾、雾里村、秋那桶等景点，被誉为"人神共居的地方"。,三江并流、怒江第一湾、雾里村、人神共居,https://picsum.photos/seed/丙中洛_云南省/800/600
普者黑,云南省,文山壮族苗族自治州,丘北县,西南,云南省文山壮族苗族自治州丘北县010乡道与321省道交叉口西200米,104.608533,23.59698,4A级景区|国家级风景名胜区,自然风光|宗教场所,赏花,4A,公交：公交8路 | 自驾：导航至景区停车场 | 出租车/网约车：直接定位景区名称,08:00-17:30,景区免费，游船、溶洞等另收费,收费,高德地图APP景区门票预订 | 美团APP搜索景区名称预约,1-2天,全年适宜,全年龄,普者黑是典型的喀斯特地貌，以"水上田园、湖泊峰林、彝家水乡、岩溶湿地、荷花世界、候鸟天堂"六大景观著称。是《爸爸去哪儿》《三生三世十里桃花》拍摄地。,喀斯特山水、荷花世界、三生三世拍摄地、彝族风情,https://picsum.photos/seed/普者黑_云南省/800/600
坝美世外桃源,云南省,文山壮族苗族自治州,广南县,西南,云南省文山壮族苗族自治州广南县坝美镇,104.06796,23.407822,4A级景区|世外桃源,自然风光|民俗风情,赏花,4A,公交：公交42路 | 自驾：导航至景区停车场 | 出租车/网约车：直接定位景区名称,08:00-17:30,180/人（含船票及观光车）,收费,百度地图APP景区门票购买 | 景区官方网站在线预订 | 大众点评APP搜索购票,4-8小时,全年适宜,全年龄,坝美被誉为陶渊明笔下"桃花源"的现实版。村子四面环山，进出村需乘船穿过800米长的水溶洞，是典型的喀斯特地貌。村内田园风光优美，壮族风情浓郁。,现实版桃花源、溶洞水道、壮族风情、田园风光,https://picsum.photos/seed/坝美世外桃源_云南省/800/600
石林风景区,云南省,昆明市,石林彝族自治县,西南,云南省昆明市石林彝族自治县石林街道,103.199523,25.331699,5A级景区|国家地质公园|世界自然遗产,自然风光|宗教场所|园林公园,,5A,地铁：2号线昆明解放站 | 公交：570路、519路、778路 | 出租车/网约车：搜索景区名称即可到达 | 自驾：导航至'昆明XX景区'，景区提供停车场,07:00-18:00,130/人（普通票），65/人（半票）,收费,大众点评APP搜索购票 | 美团APP搜索景区名称预约 | 百度地图APP景区门票购买,4-6小时,全年适宜,全年龄,石林是典型的喀斯特地貌，被誉为"天下第一奇观"。景区内怪石嶙峋，由大石林、小石林、步哨山、李子园箐、万年灵芝等片区组成，拥有溶洞、溶蚀湖、瀑布、地下河等精美自然景观。,世界自然遗产、阿诗玛传说、彝族风情、喀斯特地貌奇观,https://picsum.photos/seed/石林风景区_云南省/800/600
云南民族村,云南省,昆明市,西山区,西南,云南省昆明市西山区滇池路1310号,102.534311,24.781664,4A级景区|文化主题公园,自然风光|历史文化|园林公园,,4A,地铁：2号线昆明解放站 | 公交：570路、519路、778路 | 出租车/网约车：搜索景区名称即可到达 | 自驾：导航至'昆明XX景区'，景区提供停车场,日场09:00-18:00，夜场17:30-22:20,日场80/人，夜场49/人，优待票45/人,收费,大众点评APP搜索购票 | 抖音APP搜索景区名称团购 | 景区官方微信公众号预约,3-5小时,全年适宜,全年龄,云南民族村位于滇池之畔，占地1270余亩，还原了云南25个少数民族的村寨，是反映和展示云南民族文化风情的窗口。游客可体验傣族泼水节、彝族火把节等民族节庆活动。,一站式体验云南25个少数民族文化、民族歌舞表演、特色民族美食,https://picsum.photos/seed/云南民族村_云南省/800/600
滇池风景区,云南省,昆明市,西山区,西南,云南省昆明市西山区滇池路1318号,102.637666,24.705756,国家级旅游度假区,自然风光|宗教场所|园林公园,,其他,地铁：2号线昆明解放站 | 公交：570路、519路、778路 | 出租车/网约车：搜索景区名称即可到达 | 自驾：导航至'昆明XX景区'，景区提供停车场,全天开放,免费,免费,大众点评APP搜索购票 | 美团APP搜索景区名称预约,2-4小时,全年适宜,全年龄,滇池是云南省最大的淡水湖，有"高原明珠"之称。冬季可观赏红嘴鸥，湖畔景观路大坝是最佳观鸥地点。周边有海埂公园、西山森林公园等景点。,高原湖泊风光、冬季观鸥、环湖骑行、西山龙门,https://picsum.photos/seed/滇池风景区_云南省/800/600
大山包景区,云南省,昭通市,昭阳区,西南,云南省昭通市昭阳区大山包乡大荞地北侧,104.084802,27.643153,4A级景区|国家级自然保护区,自然风光|宗教场所,摄影,4A,公交：公交18路 | 自驾：导航至景区停车场 | 出租车/网约车：直接定位景区名称 | 景区接驳车/观光车,07:00-19:00,78/人,收费,百度地图APP景区门票购买 | 携程APP搜索景区名称购票 | 高德地图APP景区门票预订,4-8小时,全年适宜,全年龄,大山包是黑颈鹤国家级自然保护区，海拔约3100米。景区分为鸡公山、仙人田、跳墩湖和大海子四个景点，是观云海、看日落、观赏黑颈鹤的好地方。,黑颈鹤越冬地、高原湿地、鸡公山云海、冬季观鸟,https://picsum.photos/seed/大山包景区_云南省/800/600
黄连河风景区,云南省,昭通市,大关县,西南,云南省昭通市大关县黄连河,103.668729,27.742714,3A级景区|瀑布群,自然风光,,3A,公交：公交18路 | 自驾：导航至景区停车场 | 出租车/网约车：直接定位景区名称 | 景区接驳车/观光车,08:00-18:00,50/人,收费,百度地图APP景区门票购买 | 美团APP搜索景区名称预约,3-4小时,全年适宜,全年龄,黄连河风景区以瀑布群著称，有大小瀑布47个，其中落差最大的达147米。景区内植被茂密，溪流纵横，被誉为"瀑布之乡"。,瀑布群、原始森林、峡谷风光、避暑胜地,https://picsum.photos/seed/黄连河风景区_云南省/800/600
中华普洱茶博览苑,云南省,普洱市,思茅区,西南,云南省普洱市思茅区营盘山,101.302374,22.77674,4A级景区|茶文化主题,自然风光|历史文化|博物馆,,4A,公交：公交45路 | 自驾：导航至景区停车场 | 出租车/网约车：直接定位景区名称,08:30-17:30,30/人，套票80/人（含电瓶车）,收费,景区官方微信公众号预约 | 大众点评APP搜索购票,3-4小时,全年适宜,全年龄,中华普洱茶博览苑建在距市区29公里的营盘山上，以万亩生态茶园为背景。景区有博物馆、问茶楼、采茶区、茶作坊、茶祖殿等九大景区，可体验采茶、制茶、品茶。,万亩茶园、普洱茶文化、采茶体验、制茶工艺,https://picsum.photos/seed/中华普洱茶博览苑_云南省/800/600
太阳河森林公园,云南省,普洱市,思茅区,西南,云南省普洱市思茅区太阳河,100.570844,23.31724,4A级景区|国家森林公园,自然风光|宗教场所|园林公园,亲子,4A,公交：公交47路 | 自驾：导航至景区停车场 | 出租车/网约车：直接定位景区名称,08:00-18:00,100/人（含电瓶车）,收费,景区官方微信公众号预约 | 飞猪APP搜索景区名称购票,4-5小时,全年适宜,全年龄,太阳河森林公园是北回归线上最大的绿洲，森林覆盖率达97%。景区内有犀牛坪、小熊猫庄园等景点，可近距离观赏野生动物，是亲子游的好去处。,北回归线绿洲、野生动物、犀牛坪、小熊猫、森林徒步,https://picsum.photos/seed/太阳河森林公园_云南省/800/600
珠江源风景区,云南省,曲靖市,沾益区,西南,云南省曲靖市沾益区炎方乡马雄山,103.730597,25.642786,4A级景区|国家森林公园,自然风光|宗教场所|园林公园,,4A,公交：公交38路 | 自驾：导航至景区停车场 | 出租车/网约车：直接定位景区名称 | 景区接驳车/观光车,08:30-18:00,40/人,收费,携程APP搜索景区名称购票 | 景区官方网站在线预订,3-4小时,全年适宜,全年龄,珠江源是珠江的发源地，位于马雄山麓。景区内森林茂密，溪流潺潺，有"一水滴三江，一脉隔双盘"的奇观，是珠江流域人民寻根祭祖的圣地。,珠江源头、马雄山森林、三江奇观、祭祖文化,https://picsum.photos/seed/珠江源风景区_云南省/800/600
麒麟水乡,云南省,曲靖市,麒麟区,西南,云南省曲靖市麒麟区靖宁东路麒麟水乡主码头9号,103.942015,25.972812,4A级景区|湿地公园,自然风光|历史文化|宗教场所,,4A,公交：公交42路 | 自驾：导航至景区停车场 | 出租车/网约车：直接定位景区名称,全天开放,免费,免费,飞猪APP搜索景区名称购票 | 抖音APP搜索景区名称团购,2-3小时,全年适宜,全年龄,麒麟水乡以千亩荷塘、水上森林迷宫和爨文化主题景观为核心特色，集生态观光、文化体验、休闲娱乐于一体。夏季荷花盛开时景色最美。,千亩荷塘、水上森林、爨文化、生态湿地,https://picsum.photos/seed/麒麟水乡_云南省/800/600
罗平油菜花景区,云南省,曲靖市,罗平县,西南,云南省曲靖市罗平县,103.581062,25.621729,自然景观|季节性景区,自然风光|宗教场所,摄影|赏花,其他,公交：公交29路 | 自驾：导航至景区停车场 | 出租车/网约车：直接定位景区名称 | 景区接驳车/观光车,全天开放,免费（部分观景台收费）,收费,携程APP搜索景区名称购票 | 百度地图APP景区门票购买 | 同程旅行APP在线购票,1-2天,全年适宜,全年龄,罗平是中国最大的油菜花生产基地，每年2-3月，80万亩油菜花竞相绽放，形成金色花海。金鸡峰丛、牛街螺丝田是最佳观赏点。,世界最大油菜花田、金鸡峰丛、螺丝田、春季赏花,https://picsum.photos/seed/罗平油菜花景区_云南省/800/600
禄丰世界恐龙谷,云南省,楚雄彝族自治州,禄丰市,西南,云南省楚雄州禄丰市川街世界恐龙谷风景区,102.005266,24.673773,4A级景区|国家地质公园,历史文化|园林公园|主题乐园,亲子|研学,4A,公交：公交14路 | 自驾：导航至景区停车场 | 出租车/网约车：直接定位景区名称,周一至周五08:00-17:30，周六至周日08:00-18:00,160/人，优待票110/人,收费,美团APP搜索景区名称预约 | 景区官方网站在线预订,4-5小时,全年适宜,全年龄,禄丰是世界恐龙化石之乡，恐龙谷以亿年恐龙化石群为核心，展示了世界上最古老的恐龙化石。景区有恐龙遗址公园、时空乐园等，适合亲子游和科普教育。,恐龙化石群、许氏禄丰龙、时空乐园、科普教育,https://picsum.photos/seed/禄丰世界恐龙谷_云南省/800/600
彝人古镇,云南省,楚雄彝族自治州,楚雄市,西南,云南省楚雄彝族自治州楚雄市永安路543号,101.634734,25.463492,4A级景区|文化旅游区,历史文化|现代建筑|民俗风情,赏花,4A,公交：公交50路 | 自驾：导航至景区停车场 | 出租车/网约车：直接定位景区名称,全天开放,免费,免费,携程APP搜索景区名称购票 | 百度地图APP景区门票购买 | 高德地图APP景区门票预订,2-3小时,全年适宜,全年龄,彝人古镇位于楚雄市经济开发区，全方位展现彝族文化。主要景点有望江楼、桃花溪、德运广场、彝人部落、土司府等，可感受浓厚的彝族风情。,彝族文化、火把节、彝家美食、民族歌舞,https://picsum.photos/seed/彝人古镇_云南省/800/600
抚仙湖,云南省,玉溪市,澄江市、江川区、华宁县,西南,云南省玉溪市澄江市、江川区、华宁县交界处,102.942557,23.886883,国家级旅游度假区|高原湖泊,自然风光|休闲度假,,其他,公交：公交4路 | 自驾：导航至景区停车场 | 出租车/网约车：直接定位景区名称,全天开放,免费（禄充景区15/人）,收费,景区官方微信公众号预约 | 景区官方网站在线预订 | 同程旅行APP在线购票,1-2天,全年适宜,全年龄,抚仙湖是中国最大的深水型淡水湖泊，珠江源头第一大湖，水质极佳。湖面面积达212平方公里，最深处155米，环湖风光秀丽。,中国最深淡水湖、I类水质、环湖度假、水上运动,https://picsum.photos/seed/抚仙湖_云南省/800/600
月亮湾湿地公园,云南省,玉溪市,澄江市,西南,云南省玉溪市澄江市环湖北路8号,102.36781,24.058234,湿地公园|4A级景区,自然风光|宗教场所|园林公园,摄影,4A,公交：公交6路 | 自驾：导航至景区停车场 | 出租车/网约车：直接定位景区名称,08:30-20:30,30/人（可抵扣园内消费）,收费,抖音APP搜索景区名称团购 | 携程APP搜索景区名称购票 | 美团APP搜索景区名称预约,2-3小时,全年适宜,全年龄,月亮湾湿地公园位于抚仙湖北岸，是观赏抚仙湖日落的最佳地点。公园内有沙滩、栈道、草坪等设施，配套设施完善，可骑行游览。,抚仙湖日落、沙滩休闲、环湖栈道、亲子游乐,https://picsum.photos/seed/月亮湾湿地公园_云南省/800/600
帽天山,云南省,玉溪市,澄江市,西南,云南省玉溪市澄江市帽天山,102.251467,24.524302,世界自然遗产|国家地质公园,自然风光|历史文化|园林公园,,其他,公交：公交35路 | 自驾：导航至景区停车场 | 出租车/网约车：直接定位景区名称 | 景区接驳车/观光车,08:00-18:00,免费,免费,景区官方网站在线预订 | 同程旅行APP在线购票 | 百度地图APP景区门票购买,2-3小时,全年适宜,全年龄,帽天山是澄江化石地世界自然遗产核心区，发现了5.3亿年前的寒武纪生命大爆发化石群，是研究地球早期生命起源的重要遗址。,世界自然遗产、寒武纪化石、生命起源地、科普教育,https://picsum.photos/seed/帽天山_云南省/800/600
元阳哈尼梯田,云南省,红河哈尼族彝族自治州,元阳县,西南,云南省红河哈尼族彝族自治州元阳县,103.367653,23.564395,世界文化遗产|4A级景区,自然风光|历史文化|宗教场所,摄影,4A,公交：公交44路 | 自驾：导航至景区停车场 | 出租车/网约车：直接定位景区名称,全天开放,70/人（含坝达、多依树、老虎嘴、箐口）,收费,美团APP搜索景区名称预约 | 同程旅行APP在线购票 | 高德地图APP景区门票预订,1-2天,全年适宜,全年龄,元阳哈尼梯田是哈尼族1300多年来生生不息雕刻的山水田园风光画，被列入世界文化遗产。主要由坝达、多依树、老虎嘴、箐口四个景区组成，是观赏梯田日出日落的绝佳地点。,世界文化遗产、哈尼族智慧、梯田日出日落、云海,https://picsum.photos/seed/元阳哈尼梯田_云南省/800/600
建水古城,云南省,红河哈尼族彝族自治州,建水县,西南,云南省红河哈尼族彝族自治州建水县临安镇,103.5542,23.518512,国家历史文化名城|4A级景区,自然风光|历史文化|宗教场所,,4A,公交：公交13路 | 自驾：导航至景区停车场 | 出租车/网约车：直接定位景区名称,全天开放,古城免费，朱家花园35/人，文庙60/人,收费,高德地图APP景区门票预订 | 景区官方微信公众号预约,1-2天,全年适宜,全年龄,建水古城始建于唐代，有1200多年历史。古城内有朱家花园、文庙、朝阳楼、双龙桥等古迹，被誉为"滇南邹鲁"。建水紫陶是中国四大名陶之一。,国家历史文化名城、朱家花园、建水文庙、建水紫陶,https://picsum.photos/seed/建水古城_云南省/800/600
朱家花园,云南省,红河哈尼族彝族自治州,建水县,西南,云南省红河哈尼族彝族自治州建水县翰林街16号,103.080987,23.194932,4A级景区|古建筑群,宗教场所|园林公园,,4A,公交：公交15路 | 自驾：导航至景区停车场 | 出租车/网约车：直接定位景区名称,08:00-19:00,35/人,收费,景区官方微信公众号预约 | 同程旅行APP在线购票 | 美团APP搜索景区名称预约,2-3小时,全年适宜,全年龄,朱家花园是清末乡绅朱渭卿兄弟建造的家宅和宗祠，有"西南边陲大观园"之称。园内宗祠、庙堂、居室、园林皆富丽堂皇，体现了西南民居建筑风格。,西南边陲大观园、清代民居建筑、园林艺术,https://picsum.photos/seed/朱家花园_云南省/800/600
野象谷,云南省,西双版纳傣族自治州,景洪市,西南,云南省西双版纳傣族自治州景洪市勐养镇,101.159715,22.176601,4A级景区|自然保护区,自然风光|宗教场所|博物馆,,4A,公交：公交5路 | 自驾：导航至景区停车场 | 出租车/网约车：直接定位景区名称,08:00-18:00,60/人,收费,百度地图APP景区门票购买 | 美团APP搜索景区名称预约 | 景区官方微信公众号预约,4-5小时,全年适宜,全年龄,野象谷是中国唯一可以近距离观赏亚洲野象的地方。景区内有高空观象栈道、亚洲象博物馆、蝴蝶园等，可观赏野象、蟒蛇、孔雀等野生动物。,亚洲野象、热带雨林、高空观象栈道、蝴蝶园,https://picsum.photos/seed/野象谷_云南省/800/600
傣族园,云南省,西双版纳傣族自治州,景洪市,西南,云南省西双版纳傣族自治州景洪市勐罕镇橄榄坝,100.811167,22.262724,4A级景区|民族风情,自然风光|宗教场所|民俗风情,美食,4A,公交：公交45路 | 自驾：导航至景区停车场 | 出租车/网约车：直接定位景区名称,08:00-17:00,45/人,收费,同程旅行APP在线购票 | 美团APP搜索景区名称预约 | 携程APP搜索景区名称购票,3-4小时,全年适宜,全年龄,傣族园由保存较完好的五个傣族自然村寨组成，分别是曼将、曼春满、曼听、曼乍、曼嘎。可体验傣族泼水节、品尝傣家美食、观赏傣族歌舞表演。,傣族村寨、泼水节体验、傣家美食、傣族歌舞,https://picsum.photos/seed/傣族园_云南省/800/600
普达措国家公园,云南省,迪庆藏族自治州,香格里拉市,西南,云南省迪庆藏族自治州香格里拉市普达措国家公园,99.480911,28.208309,5A级景区|国家公园,自然风光|宗教场所|园林公园,,5A,公交：公交9路 | 自驾：导航至景区停车场 | 出租车/网约车：直接定位景区名称,08:30-16:00（冬季），08:30-16:30（夏季）,138/人（含门票68+车票70）,收费,美团APP搜索景区名称预约 | 景区官方微信公众号预约 | 同程旅行APP在线购票,4-6小时,全年适宜,全年龄,普达措国家公园是世界自然遗产"三江并流"的重要组成部分，由碧塔海、属都湖和弥里塘亚高山牧场组成。公园内有原始森林、高山湖泊、草原湿地等景观。,5A级景区、三江并流、高山湖泊、原始森林、藏区风光,https://picsum.photos/seed/普达措国家公园_云南省/800/600
松赞林寺,云南省,迪庆藏族自治州,香格里拉市,西南,云南省迪庆藏族自治州香格里拉市建塘镇尼旺路3号,99.260808,27.708612,4A级景区|藏传佛教寺院,自然风光|历史文化|宗教场所,,4A,公交：公交19路 | 自驾：导航至景区停车场 | 出租车/网约车：直接定位景区名称,08:00-18:00,90/人（含讲解和电瓶车）,收费,携程APP搜索景区名称购票 | 景区官方网站在线预订 | 百度地图APP景区门票购买,2-3小时,全年适宜,全年龄,松赞林寺是云南最大的藏传佛教寺院，有"小布达拉宫"之称。寺院依山而建，气势恢宏，是川滇一带的黄教中心，也是了解藏族文化的重要窗口。,小布达拉宫、藏传佛教、藏族文化、建筑艺术,https://picsum.photos/seed/松赞林寺_云南省/800/600
独克宗古城,云南省,迪庆藏族自治州,香格里拉市,西南,云南省迪庆藏族自治州香格里拉市独克宗古城,100.119419,27.393255,4A级景区|藏族古城,历史文化|民俗风情,,4A,公交：公交47路 | 自驾：导航至景区停车场 | 出租车/网约车：直接定位景区名称,全天开放,免费,免费,飞猪APP搜索景区名称购票 | 高德地图APP景区门票预订 | 百度地图APP景区门票购买,2-3小时,全年适宜,全年龄,独克宗古城是云南最古老且保存最完好的藏族古镇之一，"独克宗"藏语意为"月光城"和"建在石头上的城堡"。古城内有世界上最大的转经筒，是体验藏族风情的好地方。,月光城、世界最大转经筒、藏族风情、茶马古道,https://picsum.photos/seed/独克宗古城_云南省/800/600
辉腾锡勒黄花沟草原旅游区,内蒙古自治区,乌兰察布市,察哈尔右翼中旗,华北,内蒙古自治区乌兰察布市察哈尔右翼中旗辉腾锡勒草原,112.754868,41.315119,4A级景区|高山草原|避暑胜地,自然风光|宗教场所|主题乐园,,4A,公交：公交49路 | 自驾：导航至景区停车场 | 出租车/网约车：直接定位景区名称,08:00-18:00,单程交通票195/人，双程交通票215/人,收费,百度地图APP景区门票购买 | 高德地图APP景区门票预订,4-8小时,全年适宜,全年龄,辉腾锡勒草原蒙古语意为"寒冷的高原"，是世界三大高山草甸鲜花草原之一。草原平均海拔2100米，夏季平均气温仅18℃，被誉为"塞外清凉乐园"。黄花沟以独特的火山熔岩地貌、高山湿地和草原景观闻名，植被覆盖率高达80%-95%。,世界三大高山草甸草原、避暑胜地（夏季18℃）、火山熔岩地貌、高山湿地,https://picsum.photos/seed/辉腾锡勒黄花沟草原旅游区_内蒙古自治区/800/600
格根塔拉草原旅游区,内蒙古自治区,乌兰察布市,四子王旗,华北,内蒙古自治区乌兰察布市四子王旗格根塔拉草原,112.88621,41.468752,4A级景区|草原风光|民俗体验,自然风光|历史文化|现代建筑,,4A,公交：公交16路 | 自驾：导航至景区停车场 | 出租车/网约车：直接定位景区名称,全天开放,30/人,收费,景区官方网站在线预订 | 高德地图APP景区门票预订,1-2天,全年适宜,全年龄,格根塔拉草原是内蒙古规模最大的蒙古族风情旅游景点，也是全国首批4A级旅游景区之一。草原辽阔，设施完善，是体验蒙古族游牧文化的理想之地。每年农历五月十三举行祭敖包活动，七月举办那达慕大会，吸引众多游客。,内蒙古最大蒙古族风情景点、那达慕大会、祭敖包、草原民俗体验,https://picsum.photos/seed/格根塔拉草原旅游区_内蒙古自治区/800/600
乌海湖休闲度假旅游区,内蒙古自治区,乌海市,海勃湾区,华北,内蒙古自治区乌海市海勃湾区滨河大道,107.130989,39.931637,4A级景区|湖泊湿地|休闲度假,自然风光|宗教场所|现代建筑,,4A,公交：公交24路 | 自驾：导航至景区停车场 | 出租车/网约车：直接定位景区名称,08:00-18:00,免费（部分项目收费）,收费,景区官方网站在线预订 | 携程APP搜索景区名称购票 | 百度地图APP景区门票购买,2-3小时,全年适宜,全年龄,乌海湖是黄河海勃湾水利枢纽工程蓄水形成的湖泊，水域面积广阔，是体验水上运动和观赏候鸟的理想之地。湖区集沙漠、湖泊、山脉于一体，形成独特的自然景观，是乌海市的地标性景区。,黄河湖泊景观、水上运动、候鸟观赏、沙漠湖泊交融,https://picsum.photos/seed/乌海湖休闲度假旅游区_内蒙古自治区/800/600
甘德尔山生态旅游景区,内蒙古自治区,乌海市,海勃湾区,华北,内蒙古自治区乌海市海勃湾区甘德尔山,106.87939,39.683321,4A级景区|山岳景观|生态旅游,自然风光|宗教场所,,4A,公交：公交5路 | 自驾：导航至景区停车场 | 出租车/网约车：直接定位景区名称 | 景区接驳车/观光车,08:30-17:30,缆车+博物馆套票约160/人,收费,抖音APP搜索景区名称团购 | 百度地图APP景区门票购买 | 美团APP搜索景区名称预约,3-4小时,全年适宜,全年龄,甘德尔山位于贺兰山余脉，海拔1800多米，山顶建有世界最大的成吉思汗雕像（高88.95米）。景区设有缆车系统，游客可登顶俯瞰黄河流域、乌海湖和乌兰布和沙漠，感受"大漠孤烟直，长河落日圆"的壮美景象。,世界最大成吉思汗雕像、俯瞰黄河乌海湖、沙漠与城市交融景观,https://picsum.photos/seed/甘德尔山生态旅游景区_内蒙古自治区/800/600
阿尔山国家森林公园,内蒙古自治区,兴安盟,阿尔山市,华北,内蒙古自治区兴安盟阿尔山市旅游路,121.67312,46.304789,5A级景区|国家森林公园|火山地貌,自然风光|宗教场所|园林公园,摄影|康养,5A,公交：公交49路 | 自驾：导航至景区停车场 | 出租车/网约车：直接定位景区名称 | 景区接驳车/观光车,08:00-17:00,旺季180/人，淡季140/人（有效期2天）,收费,抖音APP搜索景区名称团购 | 高德地图APP景区门票预订,2天,全年适宜,全年龄,阿尔山国家森林公园位于大兴安岭西南麓，是国家5A级旅游景区和世界地质公园。公园内有天池、石塘林、杜鹃湖、三潭峡等七大景点，集火山地貌、森林景观、温泉资源于一体。秋季层林尽染，是摄影爱好者的天堂。,5A级景区、世界地质公园、火山天池、秋季红叶、温泉资源,https://picsum.photos/seed/阿尔山国家森林公园_内蒙古自治区/800/600
成吉思汗庙景区,内蒙古自治区,兴安盟,乌兰浩特市,华北,内蒙古自治区兴安盟乌兰浩特市成吉思汗庙,122.021789,46.494748,4A级景区|历史文化|祭祀建筑,历史文化|宗教场所,,4A,公交：公交13路 | 自驾：导航至景区停车场 | 出租车/网约车：直接定位景区名称 | 景区接驳车/观光车,08:00-17:30,40/人,收费,携程APP搜索景区名称购票 | 抖音APP搜索景区名称团购 | 景区官方网站在线预订,1-2小时,全年适宜,全年龄,成吉思汗庙是世界上唯一一座纪念成吉思汗的祠庙，建于1940年。庙宇融合汉、蒙、藏三种建筑风格，气势恢宏。庙内供奉成吉思汗铜像，陈列着与成吉思汗相关的文物和历史资料，是了解成吉思汗和蒙古族历史的重要场所。,世界唯一成吉思汗祠庙、汉蒙藏融合建筑、蒙古族历史文化,https://picsum.photos/seed/成吉思汗庙景区_内蒙古自治区/800/600
五当召,内蒙古自治区,包头市,石拐区,华北,内蒙古自治区包头市石拐区五当沟,110.304455,40.600741,4A级景区|宗教寺庙|历史文化,自然风光|历史文化|宗教场所,,4A,公交：公交35路 | 自驾：导航至景区停车场 | 出租车/网约车：直接定位景区名称,08:30-17:00,60/人,收费,美团APP搜索景区名称预约 | 景区官方网站在线预订,2-3小时,全年适宜,全年龄,五当召创建于清康熙年间，是内蒙古最大的藏传佛教格鲁派寺院，与西藏布达拉宫、青海塔尔寺并称为中国藏传佛教三大名寺。寺院依山而建，白色建筑群在苍松翠柏掩映下雄浑壮观，素有"小布达拉宫"之称。,内蒙古最大藏传佛教寺院、"小布达拉宫"、清代古建筑群,https://picsum.photos/seed/五当召_内蒙古自治区/800/600
赛汗塔拉城中草原（赛罕塔拉生态园）,内蒙古自治区,包头市,青山区,华北,内蒙古自治区包头市青山区民主路与建设路交叉口南侧,109.632164,40.333091,4A级景区|城市草原|生态公园,自然风光|宗教场所|园林公园,,4A,公交：公交34路 | 自驾：导航至景区停车场 | 出租车/网约车：直接定位景区名称,全天开放,免费,免费,飞猪APP搜索景区名称购票 | 景区官方网站在线预订,3-4小时,全年适宜,全年龄,赛汗塔拉城中草原是全国唯一的都市草原，占地面积约770公顷。草原上有30多顶蒙古包，设有敖包广场、观景台、红柳林风光区等景点。游客可体验骑马、射箭、摔跤等蒙古族传统活动，是城市中的草原绿洲。,全国唯一都市草原、免费入园、蒙古族民俗体验、城市绿肺,https://picsum.photos/seed/赛汗塔拉城中草原（赛罕塔拉生态园）_内蒙古自治区/800/600
呼伦贝尔大草原,内蒙古自治区,呼伦贝尔市,陈巴尔虎旗,华北,内蒙古自治区呼伦贝尔市陈巴尔虎旗呼伦贝尔大草原,120.143963,49.258479,5A级景区|草原风光|自然生态,自然风光|民俗风情,,5A,公交：公交38路 | 自驾：导航至景区停车场 | 出租车/网约车：直接定位景区名称,全天开放,草原免费开放（部分景点收费，如金帐汗景区约20）,收费,景区官方网站在线预订 | 飞猪APP搜索景区名称购票,1-3天,全年适宜,全年龄,呼伦贝尔大草原是世界四大草原之一，得名于呼伦湖和贝尔湖。草原面积广阔，牧草丰美，河流纵横，是中国保存最完好的草原。每年7-8月是最佳旅游季节，可体验骑马、射箭、住蒙古包、品尝手把肉等蒙古族传统民俗。,世界四大草原之一、中国最美草原、蒙古族民俗体验、避暑胜地,https://picsum.photos/seed/呼伦贝尔大草原_内蒙古自治区/800/600
满洲里中俄边境旅游区,内蒙古自治区,呼伦贝尔市,满洲里市,华北,内蒙古自治区呼伦贝尔市满洲里市华埠大街,119.618124,49.357318,5A级景区|边境风光|异域风情,历史文化|主题乐园|现代建筑,,5A,公交：公交39路 | 自驾：导航至景区停车场 | 出租车/网约车：直接定位景区名称,08:00-17:30,国门景区60/人，套娃景区50/人,收费,景区官方网站在线预订 | 携程APP搜索景区名称购票,4-6小时,全年适宜,全年龄,满洲里是中国最大的陆路口岸城市，中俄边境旅游区由国门景区和套娃广场组成。国门景区可远眺俄罗斯后贝加尔斯克，套娃广场是世界最大的套娃主题广场，充满俄罗斯风情。这里是体验中俄边境文化和异域风情的绝佳之地。,中俄边境国门、俄罗斯风情、世界最大套娃广场、边境贸易体验,https://picsum.photos/seed/满洲里中俄边境旅游区_内蒙古自治区/800/600
大召寺,内蒙古自治区,呼和浩特市,玉泉区,华北,内蒙古自治区呼和浩特市玉泉区大召前街,111.83618,41.103015,4A级景区|历史文化|宗教寺庙,历史文化|宗教场所,,4A,公交：公交19路 | 自驾：导航至景区停车场 | 出租车/网约车：直接定位景区名称,08:00-18:00,35/人,收费,景区官方微信公众号预约 | 美团APP搜索景区名称预约 | 携程APP搜索景区名称购票,1-2小时,全年适宜,全年龄,大召寺是明代蒙古土默特部落首领阿拉坦汗于明万历八年（1580年）主持修建的藏传佛教格鲁派寺院，是呼和浩特最早兴建的喇嘛教寺庙。寺内供奉的银佛、龙雕、壁画被誉为"三绝"，具有极高的艺术价值和历史价值。,明代古建筑群、银佛龙雕壁画三绝、藏传佛教文化体验,https://picsum.photos/seed/大召寺_内蒙古自治区/800/600
内蒙古博物院,内蒙古自治区,呼和浩特市,新城区,华北,内蒙古自治区呼和浩特市新城区新华东街27号,112.158668,40.855411,4A级景区|博物馆|历史文化,自然风光|历史文化|博物馆,,4A,公交：公交42路 | 自驾：导航至景区停车场 | 出租车/网约车：直接定位景区名称,09:00-17:00（周一闭馆，16:00停止入馆）,免费（需预约）,收费,抖音APP搜索景区名称团购 | 携程APP搜索景区名称购票 | 美团APP搜索景区名称预约,3-4小时,全年适宜,全年龄,内蒙古博物院是内蒙古自治区最大的综合性博物馆，馆藏文物超过15万件（套），其中珍贵文物超过6000件。展览涵盖内蒙古地区从远古到现代的各个历史时期，全面展示了内蒙古的自然生态、历史文化和民族风情。,恐龙化石、辽代文物、蒙古族文化、免费参观,https://picsum.photos/seed/内蒙古博物院_内蒙古自治区/800/600
乌梁素海景区,内蒙古自治区,巴彦淖尔市,乌拉特前旗,华北,内蒙古自治区巴彦淖尔市乌拉特前旗乌梁素海,107.581571,40.602572,4A级景区|湖泊湿地|自然保护区,自然风光|宗教场所,,4A,公交：公交48路 | 自驾：导航至景区停车场 | 出租车/网约车：直接定位景区名称 | 景区接驳车/观光车,08:00-18:00,30/人（船票另计）,收费,大众点评APP搜索购票 | 景区官方网站在线预订 | 携程APP搜索景区名称购票,3-4小时,全年适宜,全年龄,乌梁素海是内蒙古第二大淡水湖，也是黄河流域最大的淡水湖，素有"塞外明珠"之称。湖区与乌拉特草原融为一体，是候鸟迁徙的重要驿站，每年春秋季节有大量候鸟在此停歇。游客可乘船游览湖区，观赏湖光山色和鸟类生态。,塞外明珠、候鸟天堂、黄河流域最大淡水湖、草原湖泊风光,https://picsum.photos/seed/乌梁素海景区_内蒙古自治区/800/600
纳林湖景区,内蒙古自治区,巴彦淖尔市,磴口县,华北,内蒙古自治区巴彦淖尔市磴口县纳林套海农场,107.673796,40.522303,4A级景区|湖泊湿地|沙漠湖泊,自然风光|宗教场所,摄影,4A,公交：公交37路 | 自驾：导航至景区停车场 | 出租车/网约车：直接定位景区名称 | 景区接驳车/观光车,08:00-18:00,40/人,收费,美团APP搜索景区名称预约 | 景区官方微信公众号预约 | 同程旅行APP在线购票,2-3小时,全年适宜,全年龄,纳林湖位于乌兰布和沙漠腹地，是沙漠中的一颗明珠。湖水清澈，芦苇丛生，是观鸟和摄影的好去处。景区集沙漠、湖泊、芦苇荡于一体，形成独特的沙漠湿地景观，游客可体验沙漠越野、水上娱乐等项目。,沙漠中的湖泊、芦苇荡景观、观鸟胜地、沙漠湿地生态,https://picsum.photos/seed/纳林湖景区_内蒙古自治区/800/600
克什克腾世界地质公园（阿斯哈图石林景区）,内蒙古自治区,赤峰市,克什克腾旗,华北,内蒙古自治区赤峰市克什克腾旗阿斯哈图石林景区,118.977268,41.869816,5A级景区|世界地质公园|自然奇观,自然风光|宗教场所|园林公园,,5A,公交：公交6路 | 自驾：导航至景区停车场 | 出租车/网约车：直接定位景区名称 | 景区接驳车/观光车,07:30-17:30,120/人（含观光车）,收费,同程旅行APP在线购票 | 景区官方微信公众号预约 | 携程APP搜索景区名称购票,4-5小时,全年适宜,全年龄,克什克腾世界地质公园是中国首批世界地质公园之一，阿斯哈图石林是其核心景区。"阿斯哈图"蒙语意为"险峻的岩石"，石林由冰川运动形成，是世界罕见的花岗岩石林地貌。景区内怪石嶙峋，形态各异，堪称地质奇观。,世界地质公园、冰川遗迹石林、花岗岩地貌奇观、摄影胜地,https://picsum.photos/seed/克什克腾世界地质公园（阿斯哈图石林景区）_内蒙古自治区/800/600
达里诺尔湖景区,内蒙古自治区,赤峰市,克什克腾旗,华北,内蒙古自治区赤峰市克什克腾旗达里诺尔湖,118.784351,41.989467,4A级景区|湖泊湿地|自然保护区,自然风光,美食,4A,公交：公交48路 | 自驾：导航至景区停车场 | 出租车/网约车：直接定位景区名称 | 景区接驳车/观光车,08:00-18:00,90/人,收费,飞猪APP搜索景区名称购票 | 大众点评APP搜索购票,3-4小时,全年适宜,全年龄,达里诺尔湖是内蒙古第二大内陆湖，也是国家级自然保护区。湖泊周边草原辽阔，是候鸟迁徙的重要驿站，每年春秋季节有数万只候鸟在此停歇。湖中盛产华子鱼，是当地的特色美食。,内蒙古第二大湖、候鸟天堂、华子鱼美食、草原湖泊风光,https://picsum.photos/seed/达里诺尔湖景区_内蒙古自治区/800/600
大青沟国家级自然保护区,内蒙古自治区,通辽市,科尔沁左翼后旗,华北,内蒙古自治区通辽市科尔沁左翼后旗大青沟镇,122.597794,43.581521,4A级景区|自然保护区|森林峡谷,自然风光,,4A,公交：公交17路 | 自驾：导航至景区停车场 | 出租车/网约车：直接定位景区名称,08:00-18:00,50/人,收费,美团APP搜索景区名称预约 | 百度地图APP景区门票购买 | 高德地图APP景区门票预订,4-6小时,全年适宜,全年龄,大青沟是一条长达24公里的林中大峡谷，位于科尔沁草原西部的沙海中，被誉为"沙漠绿洲"。沟内原始森林茂密，溪流潺潺，与沟外黄沙漫漫形成鲜明对比。景区分为地下原始森林、三岔口漂流和小青湖三个游览区。,沙漠中的原始森林、峡谷漂流、避暑胜地、地质奇观,https://picsum.photos/seed/大青沟国家级自然保护区_内蒙古自治区/800/600
孝庄园文化旅游区,内蒙古自治区,通辽市,科尔沁区,华北,内蒙古自治区通辽市科尔沁区孝庄园路,121.809118,43.721459,4A级景区|历史文化|名人故居,历史文化,,4A,公交：公交28路 | 自驾：导航至景区停车场 | 出租车/网约车：直接定位景区名称,08:00-17:30,50/人,收费,同程旅行APP在线购票 | 抖音APP搜索景区名称团购,2-3小时,全年适宜,全年龄,孝庄园是清代国母孝庄文皇后（博尔济吉特氏）的故里，是科尔沁蒙古族的标志性建筑。园区以孝庄故居为核心，展示了清代蒙古族贵族的生活场景和科尔沁蒙古族的历史文化，是了解清代历史的重要窗口。,孝庄文皇后故里、清代蒙古族建筑、历史文化体验,https://picsum.photos/seed/孝庄园文化旅游区_内蒙古自治区/800/600
响沙湾旅游景区,内蒙古自治区,鄂尔多斯市,达拉特旗,华北,内蒙古自治区鄂尔多斯市达拉特旗库布其沙漠东端,109.706865,40.102809,5A级景区|沙漠景观|休闲度假,自然风光|宗教场所|主题乐园,,5A,公交：公交46路 | 自驾：导航至景区停车场 | 出租车/网约车：直接定位景区名称 | 景区接驳车/观光车,08:00-18:00,门票+索道约130/人（不同套票价格不同）,收费,景区官方微信公众号预约 | 携程APP搜索景区名称购票,4-8小时,全年适宜,全年龄,响沙湾位于库布其沙漠东端，因"这里的沙子会唱歌"而得名，是中国三大鸣沙山之一。景区是中国首家沙漠休闲度假地，分为仙沙岛、悦沙岛、莲沙岛等多个区域，提供滑沙、骑骆驼、沙漠越野、水上乐园等丰富的娱乐项目。,会唱歌的沙子、中国首家沙漠度假地、丰富的沙漠娱乐项目,https://picsum.photos/seed/响沙湾旅游景区_内蒙古自治区/800/600
成吉思汗陵旅游区,内蒙古自治区,鄂尔多斯市,伊金霍洛旗,华北,内蒙古自治区鄂尔多斯市伊金霍洛旗伊金霍洛街与布拉格路交汇处,110.261083,40.047531,5A级景区|历史文化|祭祀文化,历史文化|宗教场所|皇家建筑,,5A,公交：公交44路 | 自驾：导航至景区停车场 | 出租车/网约车：直接定位景区名称,07:30-18:00（旺季）,旺季170/人，淡季150/人,收费,美团APP搜索景区名称预约 | 抖音APP搜索景区名称团购,3-4小时,全年适宜,全年龄,成吉思汗陵是蒙古帝国第一代大汗成吉思汗的衣冠冢，是蒙古族人民心中的圣地。陵宫建筑宏伟壮观，保留了独特的蒙古族祭祀文化。每年农历三月二十一日举行的成吉思汗祭典已被列入国家级非物质文化遗产名录。,成吉思汗衣冠冢、蒙古族祭祀文化、国家级非遗、草原帝王陵寝,https://picsum.photos/seed/成吉思汗陵旅游区_内蒙古自治区/800/600
元上都遗址,内蒙古自治区,锡林郭勒盟,正蓝旗,华北,内蒙古自治区锡林郭勒盟正蓝旗元上都遗址,115.7111,44.295004,世界文化遗产|历史文化遗址,历史文化,,其他,公交：公交42路 | 自驾：导航至景区停车场 | 出租车/网约车：直接定位景区名称,07:00-19:00,40/人,收费,飞猪APP搜索景区名称购票 | 高德地图APP景区门票预订 | 百度地图APP景区门票购买,3-4小时,全年适宜,全年龄,元上都遗址是元代都城遗址，由忽必烈于1256年兴建，曾是元朝的夏都。2012年被列入《世界遗产名录》，是内蒙古唯一的世界文化遗产。遗址见证了元朝的辉煌历史，马可·波罗曾在此觐见忽必烈，并在游记中详细记载了上都的繁华。,世界文化遗产、元代都城遗址、忽必烈夏都、金莲川草原,https://picsum.photos/seed/元上都遗址_内蒙古自治区/800/600
多伦湖景区,内蒙古自治区,锡林郭勒盟,多伦县,华北,内蒙古自治区锡林郭勒盟多伦县滦源镇,116.097003,43.648807,4A级景区|湖泊湿地|休闲度假,自然风光|宗教场所|休闲度假,,4A,公交：公交15路 | 自驾：导航至景区停车场 | 出租车/网约车：直接定位景区名称 | 景区接驳车/观光车,08:00-18:00,80/人,收费,大众点评APP搜索购票 | 同程旅行APP在线购票,3-4小时,全年适宜,全年龄,多伦湖是国家4A级旅游景区，水域面积2万亩，由七个相连湖泊组成，形成独特的湖心和半岛景观。湖区周边环绕高山、沙地和草原，风光秀美。康熙年间曾在此举行著名的"多伦会盟"，奠定了清朝对蒙古地区的统治基础。,七湖相连景观、多伦会盟历史、草原湖泊风光、休闲度假,https://picsum.photos/seed/多伦湖景区_内蒙古自治区/800/600
额济纳胡杨林旅游区,内蒙古自治区,阿拉善盟,额济纳旗,华北,内蒙古自治区阿拉善盟额济纳旗达来呼布镇,106.192649,38.420799,5A级景区|自然保护区|胡杨景观,自然风光|宗教场所,摄影,5A,公交：公交29路 | 自驾：导航至景区停车场 | 出租车/网约车：直接定位景区名称,07:30-19:30（旺季）,240/人（含摆渡车）,收费,美团APP搜索景区名称预约 | 飞猪APP搜索景区名称购票 | 携程APP搜索景区名称购票,1-2天,全年适宜,全年龄,额济纳胡杨林是世界三大胡杨林之一，也是世界上最大、最完整的胡杨林。景区分为八道桥，各有特色。每年9月下旬至10月中旬，胡杨树叶变为金黄色，与蓝天白云、沙漠戈壁相映成趣，形成震撼人心的壮美景观，是摄影爱好者的圣地。,世界最大胡杨林、金秋胡杨景观、摄影圣地、"活着一千年不死"的胡杨精神,https://picsum.photos/seed/额济纳胡杨林旅游区_内蒙古自治区/800/600
巴丹吉林沙漠,内蒙古自治区,阿拉善盟,阿拉善右旗,华北,内蒙古自治区阿拉善盟阿拉善右旗巴丹吉林沙漠,105.879014,39.309312,4A级景区|沙漠景观|世界地质公园,自然风光|宗教场所|园林公园,,4A,公交：公交46路 | 自驾：导航至景区停车场 | 出租车/网约车：直接定位景区名称,全天开放,巴丹湖50/人，沙漠地质公园220/人,收费,飞猪APP搜索景区名称购票 | 百度地图APP景区门票购买,1-2天,全年适宜,全年龄,巴丹吉林沙漠是中国第二大沙漠，也是世界最高沙丘所在地（必鲁图峰海拔1617米）。沙漠中分布着140多个湖泊，形成独特的"沙漠千湖"奇观。2009年入选《中国国家地理》"中国最美沙漠"，是世界地质公园的重要组成部分。,中国最美沙漠、世界最高沙丘、沙漠千湖奇观、世界地质公园,https://picsum.photos/seed/巴丹吉林沙漠_内蒙古自治区/800/600
故宫博物院,北京市,北京市,东城区,华北,北京市东城区景山前街4号,116.397026,39.916345,博物馆|历史建筑|世界文化遗产,历史文化|博物馆|皇家建筑,,其他,地铁1号线天安门东站|地铁1号线天安门西站|公交1路|2路|52路,08:30-17:00（旺季）|08:30-16:30（淡季）,¥60（旺季）|¥40（淡季）,收费,抖音APP搜索景区名称团购 | 景区官方微信公众号预约,半天至1天,全年|避开节假日,全年龄段|历史爱好者|文化爱好者|摄影爱好者,故宫博物院是中国明清两代的皇家宫殿，旧称紫禁城，位于北京中轴线的中心，是世界上现存规模最大、保存最为完整的木质结构古建筑之一。故宫占地面积72万平方米，建筑面积约15万平方米，有大小宫殿七十多座，房屋九千余间。故宫博物院现有藏品180余万件（套），是中华文明的宝库。,世界文化遗产|5A景区|明清皇宫|百万件文物|太和殿|乾清宫|御花园,https://you.ctrip.com/sight/beijing1/229.html
八达岭长城,北京市,北京市,延庆区,华北,北京市延庆区G6京藏高速58号出口,116.016388,40.353888,历史遗迹|世界文化遗产,历史文化|宗教场所,,其他,地铁：6号线北京人民站 | 公交：605路、960路、761路 | 出租车/网约车：搜索景区名称即可到达 | 自驾：导航至'北京XX景区'，景区提供停车场,06:30-16:30（旺季）|07:00-16:00（淡季）,¥40（旺季）|¥35（淡季）,收费,同程旅行APP在线购票 | 景区官方网站在线预订 | 抖音APP搜索景区名称团购,半天至1天,春秋季节,全年龄段|历史爱好者|户外爱好者|摄影爱好者,八达岭长城是中国古代伟大的防御工程万里长城的重要组成部分，是明长城的一个隘口。八达岭长城为居庸关的重要前哨，古称"居庸之险不在关而在八达岭"。八达岭景区是全国文明风景旅游区示范点，以其宏伟的景观、完善的设施和深厚的文化历史内涵而著称于世。,世界文化遗产|5A景区|万里长城|雄伟壮观|不到长城非好汉,https://you.ctrip.com/sight/beijing1/230.html
北京环球度假区,北京市,北京市,通州区,华北,北京市通州区京哈高速与东六环路交汇处西北角,116.661111,39.845833,主题乐园|亲子游乐,自然风光|园林公园|主题乐园,亲子,其他,地铁7号线环球度假区站|地铁八通线环球度假区站|公交589路|T116路,09:00-21:00（旺季）|10:00-19:00（淡季）,¥418起（淡季）|¥528起（旺季）,收费,大众点评APP搜索购票 | 同程旅行APP在线购票 | 百度地图APP景区门票购买,1-2天,全年|避开节假日,亲子家庭|年轻人|电影爱好者|刺激爱好者,北京环球度假区是一个广受期待的主题公园旅游目的地，包括环球主题公园、北京环球城市大道以及两家度假酒店。园区包含七大主题景区：功夫熊猫盖世之地、变形金刚基地、小黄人乐园、哈利·波特的魔法世界、侏罗纪世界努布拉岛、好莱坞和未来水世界。,全球顶级主题乐园|哈利波特魔法世界|变形金刚|侏罗纪世界|小黄人,https://you.ctrip.com/sight/beijing1/2045497.html
中国国家博物馆,北京市,北京市,东城区,华北,北京市东城区东长安街16号,116.397222,39.905278,博物馆|文化历史,历史文化|博物馆,,其他,地铁1号线天安门东站|地铁2号线前门站|公交1路|2路|52路,09:00-17:00（周一闭馆）,免费,免费,景区官方网站在线预订 | 景区官方微信公众号预约 | 携程APP搜索景区名称购票,半天至1天,全年,文化爱好者|学生|历史爱好者|艺术爱好者,中国国家博物馆是代表国家收藏、研究、展示、阐释中华文化代表性物证的最高历史文化艺术殿堂。国博现有藏品数量143万余件，涵盖古代文物、近现当代文物、艺术品等多种门类。博物馆总建筑面积近20万平方米，是世界上单体建筑面积最大的博物馆。,国家一级博物馆|百万件藏品|中华五千年文明|古代中国|复兴之路,https://you.ctrip.com/sight/beijing1/62722.html
慕田峪长城,北京市,北京市,怀柔区,华北,北京市怀柔区渤海镇慕田峪村,116.561389,40.438889,历史遗迹|世界文化遗产,自然风光|历史文化,,其他,地铁：6号线北京人民站 | 公交：605路、960路、761路 | 出租车/网约车：搜索景区名称即可到达 | 自驾：导航至'北京XX景区'，景区提供停车场,08:00-17:30（旺季）|08:30-17:00（淡季）,¥45（旺季）|¥40（淡季）,收费,抖音APP搜索景区名称团购 | 同程旅行APP在线购票 | 景区官方微信公众号预约,半天至1天,春秋季节,全年龄段|历史爱好者|户外爱好者|摄影爱好者,慕田峪长城作为明代军事防御体系的重要组成部分，其双面垛口、鹰飞倒仰等特色防御构造具有较高历史研究价值。这段城墙沿燕山余脉绵延5400米，现存23座敌楼，其中正关台由三座敌楼并列组成的建筑布局在长城体系中较为罕见。植被覆盖率高达96%以上，四季景色各异。,世界文化遗产|5A景区|明代长城|植被覆盖率高|正关台|缆车滑道,https://you.ctrip.com/sight/beijing1/243.html
恭王府,北京市,北京市,西城区,华北,北京市西城区前海西街17号,116.386111,39.937778,历史建筑|王府文化,自然风光|历史文化|皇家建筑,,其他,地铁6号线北海北站|公交3路|13路|42路|107路|111路|118路|612路,08:30-17:00（旺季）|09:00-16:00（淡季）,¥40（旺季）|¥20（淡季）,收费,景区官方微信公众号预约 | 抖音APP搜索景区名称团购,2-3小时,全年,文化爱好者|历史爱好者|摄影爱好者|古建筑爱好者,恭王府位于北京西城区前海西街，是清代规模庞大的一座王府，先后作为大贪官和珅、庆亲王永璘的宅邸，后因恭亲王奕訢居住而得名。恭王府历经了清王朝由鼎盛至衰亡的历史进程，故有"一座恭王府，半部清代史"的说法。总占地面积6万平方米，分为府邸和花园两部分。,5A景区|清代王府|和珅宅邸|恭亲王|西洋门|福字碑|大戏楼,https://you.ctrip.com/sight/beijing1/5174.html
天坛公园,北京市,北京市,东城区,华北,北京市东城区天坛东里甲1号,116.407222,39.883333,皇家祭祀|世界文化遗产,历史文化|皇家建筑|园林公园,,其他,地铁5号线天坛东门站|地铁8号线天桥站|公交6路|34路|35路|36路|72路|106路|110路,06:00-22:00（公园）|08:00-17:30（景点）,¥15（公园）|¥34（联票）,收费,高德地图APP景区门票预订 | 百度地图APP景区门票购买 | 同程旅行APP在线购票,2-4小时,全年,全年龄段|历史爱好者|文化爱好者|摄影爱好者,天坛公园是北京十分重要的景点。天坛是明、清两朝皇帝祭天、求雨和祈祷丰年的专用祭坛，是全国著名的古建筑。坛域北呈圆形，南为方形，寓意"天圆地方"。整个天坛分为内坛、外坛两部分，祈年殿、回音壁等耳熟能详的建筑都位于内坛。,世界文化遗产|5A景区|明清祭天|祈年殿|回音壁|圜丘坛|天圆地方,https://you.ctrip.com/sight/beijing1/233.html
颐和园,北京市,北京市,海淀区,华北,北京市海淀区新建宫门路19号,116.275278,39.999722,皇家园林|世界文化遗产,自然风光|历史文化|博物馆,,其他,地铁4号线北宫门站|地铁4号线西苑站|公交303路|331路|332路|346路|508路|579路,06:00-20:00（旺季）|06:30-19:00（淡季）,¥30（旺季）|¥20（淡季）|¥60（联票）,收费,同程旅行APP在线购票 | 百度地图APP景区门票购买,半天至1天,春夏秋季,全年龄段|园林爱好者|摄影爱好者|历史文化爱好者,颐和园原是清朝帝王的行宫和花园，又称清漪园，以昆明湖、万寿山为基址，按照江南园林的设计手法建造，是我国现存规模非常大，保存非常完整的皇家园林，被誉为"皇家园林博物馆"。全园可分3个区域：以仁寿殿为中心的政治活动区；以玉澜堂、乐寿堂为主体的帝后生活区；以长廊沿线、后山、西区为主的苑园游览区。,世界文化遗产|5A景区|皇家园林|昆明湖|万寿山|长廊|十七孔桥|佛香阁,https://you.ctrip.com/sight/beijing1/231.html
什刹海风景区,北京市,北京市,西城区,华北,北京市西城区地安门西大街,116.385833,39.938889,历史街区|湖泊风光,自然风光|历史文化|皇家建筑,美食,其他,地铁6号线北海北站|地铁8号线什刹海站|公交3路|13路|42路|107路|111路|118路|612路,全天开放,免费,免费,景区官方微信公众号预约 | 景区官方网站在线预订,2-4小时,春夏秋季,文艺青年|摄影爱好者|美食爱好者|夜生活爱好者,什刹海风景区指前海、后海和西海三个湖泊及临近地区，这里拥有大片优美的湖面，也是北京著名的一片历史街区，众多名人故居、王府等古迹散落其中，还有贴近老百姓生活的各类美食，后海酒吧街更是京城夜生活的老牌胜地。被誉为"北方的水乡"。,4A景区|老北京胡同|后海酒吧街|名人故居|王府古迹|北方的水乡,https://you.ctrip.com/sight/beijing1/140172.html
松花湖风景名胜区,吉林省,吉林市,丰满区,东北,吉林省吉林市丰满区松柏路1号,126.55,43.82,4A级景区 | 自然风光类 | 湖泊景区,自然风光|现代建筑|休闲度假,,4A,公交：公交33路 | 自驾：导航至景区停车场 | 出租车/网约车：直接定位景区名称,08:00-17:00,景区门票约10，游船另收费,收费,景区官方网站在线预订 | 景区官方微信公众号预约 | 美团APP搜索景区名称预约,半天至1天,全年适宜,全年龄,松花湖是丰满水电站大坝拦截松花江水形成的人工湖，水域辽阔，湖叉繁多，状如蛟龙。湖区面积500平方公里，最大蓄水量108亿立方米。湖周群山环抱，层峦叠嶂，石壁峻峭，林海茫茫。景区内有五虎岛、卧龙潭、骆驼峰、凤舞池、石龙壁、摩天岭、额赫岛等11处景区，是避暑、休闲、度假的胜地。,东北地区最大的人工湖；湖光山色交相辉映；丰富的水上娱乐项目；五虎岛等岛屿风光独特,https://picsum.photos/seed/松花湖风景名胜区_吉林省/800/600
北山风景区,吉林省,吉林市,船营区,东北,吉林省吉林市船营区北山公园,126.55,43.83,4A级景区 | 人文景观类 | 宗教文化,自然风光|历史文化|宗教场所,,4A,公交：公交18路 | 自驾：导航至景区停车场 | 出租车/网约车：直接定位景区名称 | 景区接驳车/观光车,全天开放,免费,免费,同程旅行APP在线购票 | 景区官方网站在线预订,2-3小时,全年适宜,全年龄,北山风景区位于吉林省吉林市城区腹地，占地135公顷，是一座融佛、道、儒、俗等传统文化于一身的著名公园。园内连绵的山峰一片翠绿，主要有玉皇阁、药王庙、坎离宫等古建筑，一座卧波桥把一池湖水分为东西两部分。北山公园集自然风光与人文景观于一体，是吉林市民休闲娱乐的重要场所。,关东著名寺庙园林；佛道儒三教合一的文化特色；古建筑群保存完好；市民休闲健身的好去处,https://picsum.photos/seed/北山风景区_吉林省/800/600
雾凇岛,吉林省,吉林市,龙潭区乌拉街满族镇,东北,吉林省吉林市龙潭区乌拉街满族镇韩屯村,126.55,44.05,自然景观类 | 冰雪奇观,自然风光|宗教场所,,其他,公交：公交30路 | 自驾：导航至景区停车场 | 出租车/网约车：直接定位景区名称,全天开放,约60-80（含船票）,收费,美团APP搜索景区名称预约 | 高德地图APP景区门票预订 | 同程旅行APP在线购票,2-3小时,全年适宜,全年龄,雾凇岛是松花江上的一座小岛，因冬季雾凇奇观而闻名。由于独特的地理环境和气候条件，每年冬季松花江面雾气蒸腾，在树枝上凝结成晶莹剔透的冰花，形成中国四大自然奇观之一的吉林雾凇。最佳观赏时间为每年12月下旬至次年2月，尤其是清晨时分最为壮观。,中国四大自然奇观之一；世界闻名的雾凇观赏地；摄影爱好者的天堂；独特的满族民俗文化,https://picsum.photos/seed/雾凇岛_吉林省/800/600
叶赫那拉城,吉林省,四平市,铁东区,东北,吉林省四平市铁东区叶赫满族镇转山湖东城山上,124.55,42.95,4A级景区 | 历史文化类 | 古城遗址,自然风光|历史文化|宗教场所,,4A,公交：公交9路 | 自驾：导航至景区停车场 | 出租车/网约车：直接定位景区名称,08:00-17:00,约50-60,收费,抖音APP搜索景区名称团购 | 百度地图APP景区门票购买,2-3小时,全年适宜,全年龄,叶赫那拉城始建于1995年，坐落在叶赫转山湖的东城山上，占地面积10000平方米，建筑面积7000平方米。建有箭楼、驿站、贝勒府、祭神殿、议事厅、公主楼、萨满园、城隍庙等，古朴典雅，再现了满族建筑风格和古城原貌。叶赫历史悠久，是满族重要的发祥地之一，在满族发展史上占有重要地位，是清太祖努尔哈赤夫人孝慈高皇后的出生地。,满族重要发祥地；清皇后故里；独特的满族建筑风格；丰富的满族历史文化展示,https://picsum.photos/seed/叶赫那拉城_吉林省/800/600
伊通火山群国家级自然保护区,吉林省,四平市,伊通满族自治县,东北,吉林省四平市伊通满族自治县境内,125.05,43.35,4A级景区 | 自然保护类 | 地质奇观,自然风光|宗教场所,,4A,公交：公交33路 | 自驾：导航至景区停车场 | 出租车/网约车：直接定位景区名称 | 景区接驳车/观光车,09:00-17:30,50/人，半价票25/人,收费,抖音APP搜索景区名称团购 | 飞猪APP搜索景区名称购票,半天至1天,全年适宜,全年龄,伊通火山群国家级自然保护区于1983年成立，分布于伊舒地堑上600平方公里的范围内，共有16座230-430米高的火山穹丘。其复杂多变的岩石柱状节理，构成了宏伟、奇特、罕见的火山风光和地质景观。该火山群典型、独特的"侵出式"火山成因机制，是国内乃至世界范围内不可多得的地质遗产，具有重要的科学研究和观赏价值。,国内罕见的火山地质奇观；独特的"侵出式"火山成因机制；重要的地质科研价值；壮观的柱状节理景观,https://picsum.photos/seed/伊通火山群国家级自然保护区_吉林省/800/600
查干湖景区,吉林省,松原市,前郭尔罗斯蒙古族自治县,东北,吉林省松原市前郭尔罗斯蒙古族自治县查干湖景区,124.25,45.25,5A级景区 | 自然风光类 | 湖泊湿地,自然风光|宗教场所|现代建筑,,5A,公交：公交37路 | 自驾：导航至景区停车场 | 出租车/网约车：直接定位景区名称 | 景区接驳车/观光车,08:00-18:00,25（湖区），冬捕节期间另有收费,收费,大众点评APP搜索购票 | 美团APP搜索景区名称预约,半天至1天,全年适宜,全年龄,查干湖景区于2024年正式确定为国家5A级旅游景区，地处吉林省西北部的前郭县境内，处于东北亚中心地带。查干湖，蒙语"查干淖尔"，意为白色圣洁的湖，总幅员面积506.84平方公里，水域面积420平方公里。查干湖是吉林省内最大的内陆湖、省级自然保护区，也是天然旅游胜地。查干湖因其浩瀚的水域和壮观的冬捕而闻名，是吉林省重要的渔业生产基地和生态旅游目的地。,吉林省最大的内陆湖；神秘的冬捕奇观（国家级非物质文化遗产）；蒙古族渔猎文化；5A级生态旅游景区,https://picsum.photos/seed/查干湖景区_吉林省/800/600
向海国家级自然保护区,吉林省,白城市,通榆县,东北,吉林省白城市通榆县境内,122.05,44.85,4A级景区 | 自然保护区 | 湿地生态,自然风光|宗教场所,,4A,公交：公交29路 | 自驾：导航至景区停车场 | 出租车/网约车：直接定位景区名称,全天开放,50/人（6月1日前免门票）,收费,抖音APP搜索景区名称团购 | 携程APP搜索景区名称购票 | 同程旅行APP在线购票,半天至1天,全年适宜,全年龄,向海国家级自然保护区建立于1981年，位于吉林省通榆县境内，地处科尔沁草原中部，总面积10.67万公顷（105467公顷），是国家AAAA级旅游景区及国际重要湿地。保护区是以保护丹顶鹤等珍稀水禽和蒙古黄榆等稀有植物群落为主要目的的内陆湿地与水域生态系统类型的自然保护区。区域内有霍林河、额穆泰河、洮儿河三条水系交汇，形成湖泊、沼泽、草原等多样化的生态景观。,国际重要湿地；丹顶鹤等珍稀鸟类栖息地；"东半球的白尾海雕之乡"；草原原始特色的湿地生态景观,https://picsum.photos/seed/向海国家级自然保护区_吉林省/800/600
莫莫格国家级自然保护区,吉林省,白城市,镇赉县,东北,吉林省白城市镇赉县莫莫格蒙古族乡103县道,123.5,45.75,4A级景区 | 自然保护区 | 湿地生态,自然风光|宗教场所|城市观光,,4A,公交：公交33路 | 自驾：导航至景区停车场 | 出租车/网约车：直接定位景区名称,全天开放,电话咨询（约30-50）,收费,大众点评APP搜索购票 | 同程旅行APP在线购票 | 景区官方微信公众号预约,半天至1天,全年适宜,全年龄,莫莫格景区是国家4A级旅游景区，位于吉林省白城市镇赉县莫莫格蒙古族乡。这里集湿地生态、珍禽保护、自然景观于一体，尤其以丹顶鹤等珍稀鸟类的野化训练和栖息环境闻名。莫莫格国家级自然保护区是吉林省重要的湿地保护区，拥有广袤的草原、茂密的森林和星罗棋布的湖泊，是亲近自然、了解生态保护的绝佳去处。,珍稀鸟类的野化训练基地；丹顶鹤栖息地；蒙古族风情；原生态湿地景观,https://picsum.photos/seed/莫莫格国家级自然保护区_吉林省/800/600
望天鹅风景区,吉林省,白山市,长白朝鲜族自治县,东北,吉林省白山市长白县十五道沟望天鹅峡谷内,127.65,41.35,4A级景区 | 自然风光类 | 地质奇观,自然风光|历史文化|宗教场所,,4A,公交：公交22路 | 自驾：导航至景区停车场 | 出租车/网约车：直接定位景区名称 | 景区接驳车/观光车,07:30-16:00,100-200（根据季节和套餐）,收费,高德地图APP景区门票预订 | 抖音APP搜索景区名称团购,半天至1天,全年适宜,全年龄,望天鹅风景区位于吉林省白山市长白县十五道沟，距长白县城50公里，是世界著名的火山地貌遗址。景区全长76华里，最低处海拔450米，最高处海拔1100米。望天鹅山海拔2051.4米，是东北第二高峰，距离天池32公里。横向发育的柱状节理犹如天梯，放射状节理似孔雀开屏或似千手观音，纵向发育的柱状节理犹如擎天巨柱，构成了独特而壮观的火山岩地貌景观。,世界著名的火山地貌遗址；独特的柱状节理景观；"北方九寨沟"之美誉；原始生态保存完好,https://picsum.photos/seed/望天鹅风景区_吉林省/800/600
长白山景区,吉林省,白山市/延边州,抚松县/安图县,东北,吉林省白山市抚松县/延边州安图县（长白山自然保护区）,128.05,42.05,5A级景区 | 自然风光类 | 自然保护区,自然风光,,5A,公交：公交29路 | 自驾：导航至景区停车场 | 出租车/网约车：直接定位景区名称 | 景区接驳车/观光车,北景区：07:30-16:30（夏季），08:00-15:00（冬季）,门票105/人，环保车票85/人，主峰倒站车票80/人,收费,美团APP搜索景区名称预约 | 同程旅行APP在线购票,1-2天,全年适宜,全年龄,长白山是中华十大名山之一，国家5A级旅游景区，是中朝两国的界山。景区资源丰富，动植物种类繁多，拥有"神山、圣水、奇林、仙果"等旅游胜地。主要景点有天池、长白瀑布、高山花园、鸳鸯池、鸭绿江大峡谷等。长白山天池是火山喷发形成的火山口湖，海拔2189.1米，是世界海拔最高的火山湖之一。长白山有北、西、南三个景区，各具特色。,中华十大名山之一；长白山天池——世界海拔最高的火山湖；长白瀑布——东北地区落差最大的瀑布；丰富的温泉资源；四季分明的绝美风光,https://picsum.photos/seed/长白山景区_吉林省/800/600
龙首山公园,吉林省,辽源市,龙山区,东北,吉林省辽源市龙山区龙山东街（辽河明珠花园西南侧约230米）,125.12,42.9,城市公园类 | 综合休闲,自然风光|宗教场所|园林公园,,其他,公交：公交12路 | 自驾：导航至景区停车场 | 出租车/网约车：直接定位景区名称 | 景区接驳车/观光车,全天开放,公园免费，魁星楼30,收费,景区官方微信公众号预约 | 高德地图APP景区门票预订,2-3小时,全年适宜,全年龄,龙首山位于吉林省辽源市龙山区市中心，占地面积约300公顷，因山势延伸至东辽河畔形似龙首而得名。该山建有龙首山公园，涵盖游乐设施、动物观赏区及健身设施，是广大市民休闲旅游的良好去处。园内有魁星楼等古建筑，可以俯瞰辽源市区全貌。每逢佳节，这里更是市民聚集的重要场所。,城市中心的绿色氧吧；魁星楼古建筑；动物观赏区免费开放；市民休闲娱乐首选,https://picsum.photos/seed/龙首山公园_吉林省/800/600
鴜鹭湖旅游度假区,吉林省,辽源市,东辽县,东北,吉林省辽源市东辽县金洲乡金满水库南畔,125,42.75,4A级景区 | 休闲度假类 | 湿地公园,自然风光|园林公园|休闲度假,,4A,公交：公交28路 | 自驾：导航至景区停车场 | 出租车/网约车：直接定位景区名称,08:00-16:00,60/人,收费,景区官方网站在线预订 | 飞猪APP搜索景区名称购票,半天至1天,全年适宜,全年龄,鴜鹭湖旅游度假区位于辽源市东辽县金洲乡金满水库南畔，是国家AAAA级旅游度假区、国家级水利风景区、国家湿地公园。鴜鹭湖因上游流域的河流而得名，鴜鹭河系东辽河的二级支流。景区内绿树环绕，花团锦簇，飘香四溢，环境优美，是春季踏青、夏看山花、秋游红叶、冬赏冰雪的四季旅游胜地。,国家湿地公园；四季皆宜的度假胜地；关东八铺炕民俗体验；水利风光与生态休闲完美结合,https://picsum.photos/seed/鴜鹭湖旅游度假区_吉林省/800/600
高句丽文物古迹旅游景区,吉林省,通化市,集安市,东北,吉林省通化市集安市迎宾路49号,126.18,41.12,5A级景区 | 世界文化遗产 | 历史古迹,自然风光|历史文化|皇家建筑,,5A,公交：公交38路 | 自驾：导航至景区停车场 | 出租车/网约车：直接定位景区名称 | 景区接驳车/观光车,08:30-17:00,套票约100-150（含多个景点）,收费,美团APP搜索景区名称预约 | 携程APP搜索景区名称购票,4-8小时,全年适宜,全年龄,高句丽文物古迹旅游景区位于吉林省集安市，是世界文化遗产、全国重点文物保护单位、国家5A级旅游景区、国家首批考古遗址公园。这里保存着公元1世纪到7世纪奴隶制国家高句丽王朝的遗迹，包括国内城、丸都山城、王陵及贵族墓葬等。主要景点有长寿王陵（将军坟）、好太王碑、丸都山城、禹山贵族墓地等，是世界上高句丽遗迹分布最集中、内容最丰富的地方。,世界文化遗产；东方金字塔——将军坟；好太王碑——高句丽第一碑；世界上保存最完整的高句丽文化遗址群,https://picsum.photos/seed/高句丽文物古迹旅游景区_吉林省/800/600
五女峰国家森林公园,吉林省,通化市,集安市,东北,吉林省通化市集安市北部老岭山脉,126.2,41.25,4A级景区 | 自然风光类 | 森林公园,自然风光|园林公园|休闲度假,,4A,公交：公交9路 | 自驾：导航至景区停车场 | 出租车/网约车：直接定位景区名称,08:00-17:00,65/人,收费,美团APP搜索景区名称预约 | 景区官方网站在线预订 | 高德地图APP景区门票预订,半天至1天,全年适宜,全年龄,五女峰国家森林公园坐落于吉林省东南部，毗邻鸭绿江畔、长白山南麓的老岭山脉，为国家级森林公园、国家AAAA级景区。区内有挺拔俊美的少女峰、玉女峰、秀女峰、春女峰、参女峰，总面积6867公顷。公园森林覆盖率高，空气中负离子含量高，是一个大氧吧。公园内森林资源丰富，山高林密、大树参天，是避暑、休闲、度假的理想之地。,五座秀丽的山峰；天然大氧吧；毗邻鸭绿江的边境风光；秋季红叶观赏胜地,https://picsum.photos/seed/五女峰国家森林公园_吉林省/800/600
净月潭国家森林公园,吉林省,长春市,净月高新区,东北,吉林省长春市净月开发区净月大街5840号,125.42,43.78,5A级景区 | 自然风光类 | 森林公园,自然风光|宗教场所|园林公园,,5A,地铁：1号线长春西站 | 公交：244路、643路、274路、678路 | 出租车/网约车：搜索景区名称即可到达 | 自驾：导航至'长春XX景区'，景区提供停车场,06:00-19:00（夏季），08:30-16:30（冬季）,成人票27，学生票15,收费,百度地图APP景区门票购买 | 高德地图APP景区门票预订,4-6小时,全年适宜,全年龄,净月潭景区位于吉林省长春市东南部，距市中心人民广场仅18公里，景区面积为96.38平方公里，其中水域面积5.3平方公里，森林覆盖率达到96%以上，素有"绿海明珠""都市氧吧"的美誉。景区内山明水秀，气候宜人，一年四季景致不同，人工森林形成了包括红松、黑松、樟子松、落叶松在内的30多个树种的特色景观。,亚洲最大的人工林海；城市中的天然氧吧；四季皆宜的休闲度假胜地；冬季滑雪、夏季避暑的理想选择,https://picsum.photos/seed/净月潭国家森林公园_吉林省/800/600
乐山大佛,四川省,乐山,市中区,西南,乐山市中区凌云路2435号,103.7667,29.55,世界文化遗产|佛教艺术,自然风光|历史文化|宗教场所,,其他,公交：841路、148路、937路、955路 | 出租车/网约车：搜索景区名称即可到达 | 自驾：导航至'乐山XX景区'，景区提供停车场,07:30-18:30(旺季)|08:00-17:30(淡季),¥80,收费,同程旅行APP在线购票 | 景区官方微信公众号预约 | 高德地图APP景区门票预订,4-6小时,3-5月|9-11月,全年龄段|佛教信徒|摄影爱好者|文化爱好者,乐山大佛位于岷江、青衣江和大渡河交汇处凌云山的岩壁上，又名凌云大佛，被联合国教科文组织批准为'世界文化与自然遗产'。大佛为弥勒佛坐像，通高71米，是中国最大的一尊摩崖石刻造像。,世界文化遗产|中国最大摩崖石刻|71米弥勒佛坐像|三江汇流,https://youimg1.ctrip.com/target/100m1f000001h3m4oE68L.jpg
峨眉山,四川省,乐山,峨眉山市,西南,乐山市峨眉山市黄湾镇,103.4833,29.6,世界文化与自然遗产|佛教名山,自然风光|历史文化|宗教场所,摄影,其他,公交：841路、148路、937路、955路 | 出租车/网约车：搜索景区名称即可到达 | 自驾：导航至'乐山XX景区'，景区提供停车场,06:00-18:00,¥160(旺季)|¥110(淡季),收费,大众点评APP搜索购票 | 百度地图APP景区门票购买,1-2天,春秋季节,登山爱好者|佛教信徒|摄影爱好者|自然爱好者,中国佛教四大名山之一，世界文化与自然双重遗产。山势雄伟，景色秀丽，有'峨眉天下秀'之称。主峰万佛顶海拔3099米，金顶可观云海、日出、佛光、圣灯四大奇观。,世界双遗产|中国四大佛教名山|金顶云海|日出佛光,https://youimg1.ctrip.com/target/100m1f000001h3m5oE68M.jpg
阆中古城,四川省,南充,阆中市,西南,南充市阆中市阆水中路,106,31.5833,古镇|历史文化名城,历史文化|宗教场所,,其他,公交：162路、80路 | 出租车/网约车：搜索景区名称即可到达 | 自驾：导航至'南充XX景区'，景区提供停车场,全天开放,¥120(通票),收费,携程APP搜索景区名称购票 | 景区官方网站在线预订 | 美团APP搜索景区名称预约,1-2天,春秋季节,历史爱好者|摄影爱好者|文化爱好者,阆中古城是中国四大古城之一，国家5A级旅游景区，有着2300多年的建城史。古城保存完好，有张飞庙、贡院、华光楼等众多历史遗迹。,中国四大古城|春节文化发源地|张飞庙|风水古城,https://youimg1.ctrip.com/target/100m1f000001h3mdoE68U.jpg
蜀南竹海,四川省,宜宾,长宁县,西南,宜宾市长宁县竹海镇,104.9667,28.45,自然风光|森林公园,自然风光|园林公园,,其他,公交：561路、882路、698路、210路 | 出租车/网约车：搜索景区名称即可到达 | 自驾：导航至'宜宾XX景区'，景区提供停车场,08:00-18:00,¥100,收费,景区官方网站在线预订 | 抖音APP搜索景区名称团购 | 景区官方微信公众号预约,4-8小时,春夏季节,自然爱好者|摄影爱好者|家庭游,翠甲天下的蜀南竹海，位于四川南部的宜宾市境内，幅员面积120平方公里，核心景区44平方公里。景区内共有竹子58种，7万余亩，是我国最大的原始绿竹公园。,中国最美十大森林|7万亩竹海|天然氧吧|《卧虎藏龙》取景地,https://youimg1.ctrip.com/target/100m1f000001h3m6oE68N.jpg
兴文石海,四川省,宜宾,兴文县,西南,宜宾市兴文县石海镇,105.1833,28.3,地质公园|世界地质公园,自然风光|宗教场所|园林公园,,其他,公交：561路、882路、698路、210路 | 出租车/网约车：搜索景区名称即可到达 | 自驾：导航至'宜宾XX景区'，景区提供停车场,08:00-18:00,¥90,收费,携程APP搜索景区名称购票 | 同程旅行APP在线购票,4-6小时,全年,地质爱好者|摄影爱好者|户外爱好者,兴文石海是世界地质公园、国家重点风景名胜区，以喀斯特地貌著称，有中国最大的石海景观和世界级规模的天坑群。,世界地质公园|中国最大石海|天坑群|喀斯特地貌,https://youimg1.ctrip.com/target/100m1f000001h3m7oE68O.jpg
剑门关,四川省,广元,剑阁县,西南,广元市剑阁县剑门关镇,105.55,32.2167,自然风光|历史遗迹,自然风光|历史文化,,其他,公交：154路、149路、452路 | 出租车/网约车：搜索景区名称即可到达 | 自驾：导航至'广元XX景区'，景区提供停车场,08:00-18:00,¥105,收费,百度地图APP景区门票购买 | 飞猪APP搜索景区名称购票 | 携程APP搜索景区名称购票,半天至1天,春秋季节,历史爱好者|登山爱好者|摄影爱好者,剑门关是剑门蜀道风景名胜区的核心景区，有'天下第一雄关'之称，是诸葛亮北伐时的重要关隘。景区以雄、险、幽、秀、奇的特色著称。,天下第一雄关|诸葛亮北伐关隘|蜀道难|鸟道猿猱道,https://youimg1.ctrip.com/target/100m1f000001h3mboE68S.jpg
皇泽寺,四川省,广元,利州区,西南,广元市利州区女皇路南段,105.8333,32.4333,佛教寺庙|历史建筑,历史文化|宗教场所,,其他,公交：154路、149路、452路 | 出租车/网约车：搜索景区名称即可到达 | 自驾：导航至'广元XX景区'，景区提供停车场,08:00-18:00,¥50,收费,携程APP搜索景区名称购票 | 同程旅行APP在线购票 | 大众点评APP搜索购票,2-3小时,全年,历史爱好者|佛教信徒|文化爱好者,皇泽寺是中国唯一的女皇帝武则天的祀庙，始建于北魏晚期，距今已有1500多年历史。寺内保存有大量珍贵的摩崖造像和碑刻。,武则天祀庙|北魏摩崖造像|女皇文化,https://youimg1.ctrip.com/target/100m1f000001h3mcoE68T.jpg
三星堆博物馆,四川省,德阳,广汉市,西南,德阳市广汉市西安路133号,104.2167,30.9833,博物馆|考古遗址,历史文化|博物馆|现代建筑,,其他,公交：853路、63路、796路、363路 | 出租车/网约车：搜索景区名称即可到达 | 自驾：导航至'德阳XX景区'，景区提供停车场,08:30-18:00,¥72,收费,景区官方网站在线预订 | 大众点评APP搜索购票 | 抖音APP搜索景区名称团购,3-4小时,全年,历史爱好者|考古爱好者|学生,三星堆博物馆是中国一座现代化的专题性遗址博物馆，展示了三星堆遗址出土的大量珍贵文物，包括青铜神树、青铜大立人、金杖等国宝级文物。,古蜀文明|青铜神树|青铜大立人|世界第九大奇迹,https://youimg1.ctrip.com/target/100m1f000001h3meoE68V.jpg
成都大熊猫繁育研究基地,四川省,成都,成华区,西南,成都市成华区熊猫大道1375号,104.425588,30.701068,"动物园,自然",自然风光|宗教场所|园林公园,亲子,其他,地铁：1号线成都西站 | 公交：61路、290路 | 出租车/网约车：搜索景区名称即可到达 | 自驾：导航至'成都XX景区'，景区提供停车场,07:30-18:00,55,收费,高德地图APP景区门票预订 | 同程旅行APP在线购票 | 景区官方微信公众号预约,4-5小时,全年,"家庭游,动物爱好者,学生",全球最大的大熊猫人工繁育研究基地，可近距离观赏大熊猫、小熊猫等珍稀动物,"大熊猫,小熊猫,幼崽",https://youimg1.ctrip.com/target/100m1f000001h3khoE67O.jpg
武侯祠,四川省,成都,武侯区,西南,成都市武侯区武侯祠大街231号,104.220045,30.102215,"历史遗迹,博物馆",历史文化|宗教场所|博物馆,,其他,地铁：1号线成都西站 | 公交：61路、290路 | 出租车/网约车：搜索景区名称即可到达 | 自驾：导航至'成都XX景区'，景区提供停车场,09:00-18:00,50,收费,百度地图APP景区门票购买 | 美团APP搜索景区名称预约,2-3小时,全年,"历史爱好者,三国迷,学生",纪念三国时期蜀汉丞相诸葛亮的祠庙，是中国唯一的君臣合祀祠庙,"三国文化,刘备,诸葛亮",https://youimg1.ctrip.com/target/100m1f000001h3kioE67P.jpg
锦里古街,四川省,成都,武侯区,西南,成都市武侯区武侯祠大街231号附1号,104.128816,30.330909,"古街,文化",历史文化|民俗风情,购物,其他,地铁：1号线成都西站 | 公交：61路、290路 | 出租车/网约车：搜索景区名称即可到达 | 自驾：导航至'成都XX景区'，景区提供停车场,全天开放,免费,免费,抖音APP搜索景区名称团购 | 飞猪APP搜索景区名称购票,2-3小时,全年,"游客,美食爱好者,摄影爱好者",成都著名的仿古商业街，与武侯祠相邻，展现川西民居风格和成都民俗文化,"川西建筑,成都小吃,夜景",https://youimg1.ctrip.com/target/100m1f000001h3kjoE67Q.jpg
宽窄巷子,四川省,成都,青羊区,西南,成都市青羊区宽窄巷子,103.668832,30.595879,"古街,文化",历史文化,,其他,地铁：1号线成都西站 | 公交：61路、290路 | 出租车/网约车：搜索景区名称即可到达 | 自驾：导航至'成都XX景区'，景区提供停车场,全天开放,免费,免费,抖音APP搜索景区名称团购 | 飞猪APP搜索景区名称购票 | 大众点评APP搜索购票,2-3小时,全年,"游客,摄影爱好者,美食爱好者",由宽巷子、窄巷子和井巷子组成，是成都遗留下来的较成规模的清朝古街道,"清代建筑,成都文化,茶馆",https://youimg1.ctrip.com/target/100m1f000001h3kkoE67R.jpg
都江堰,四川省,成都,都江堰市,西南,成都市都江堰市公园路,103.916691,30.15606,"水利工程,世界遗产",自然风光|历史文化,,其他,地铁：1号线成都西站 | 公交：61路、290路 | 出租车/网约车：搜索景区名称即可到达 | 自驾：导航至'成都XX景区'，景区提供停车场,08:00-18:00,80,收费,大众点评APP搜索购票 | 景区官方微信公众号预约,3-4小时,"3-5月,9-11月","历史爱好者,家庭游,学生",世界文化遗产，始建于秦代，是全世界迄今为止年代最久、唯一留存的无坝引水工程,"世界文化遗产,水利工程,李冰",https://youimg1.ctrip.com/target/100m1f000001h3kloE67S.jpg
成都大熊猫繁育研究基地,四川省,成都,成华区,西南,成都市成华区熊猫大道1375号,104.425588,30.701068,"动物园,自然",自然风光|宗教场所|园林公园,亲子,其他,地铁：1号线成都西站 | 公交：61路、290路 | 出租车/网约车：搜索景区名称即可到达 | 自驾：导航至'成都XX景区'，景区提供停车场,07:30-18:00,55,收费,抖音APP搜索景区名称团购 | 飞猪APP搜索景区名称购票,4-5小时,全年,"家庭游,动物爱好者,学生",全球最大的大熊猫人工繁育研究基地，可近距离观赏大熊猫、小熊猫等珍稀动物,"大熊猫,小熊猫,幼崽",https://youimg1.ctrip.com/target/100m1f000001h3khoE67O.jpg
青城山,四川省,成都,都江堰市,西南,成都市都江堰市青城山镇,104.271479,30.978899,"自然风光,道教",自然风光|历史文化|宗教场所,,其他,地铁：1号线成都西站 | 公交：61路、290路 | 出租车/网约车：搜索景区名称即可到达 | 自驾：导航至'成都XX景区'，景区提供停车场,08:00-17:30,"前山80,后山20",收费,抖音APP搜索景区名称团购 | 美团APP搜索景区名称预约 | 景区官方微信公众号预约,4-8小时,"3-5月,9-11月","登山爱好者,道教文化爱好者",中国道教发源地之一，分为前山和后山，前山以道教文化为主，后山以自然风光为主,"道教名山,自然风光,避暑",https://youimg1.ctrip.com/target/100m1f000001h3kmoE67T.jpg
武侯祠,四川省,成都,武侯区,西南,成都市武侯区武侯祠大街231号,104.220045,30.102215,"历史遗迹,博物馆",历史文化|宗教场所|博物馆,,其他,地铁：1号线成都西站 | 公交：61路、290路 | 出租车/网约车：搜索景区名称即可到达 | 自驾：导航至'成都XX景区'，景区提供停车场,09:00-18:00,50,收费,高德地图APP景区门票预订 | 景区官方微信公众号预约 | 抖音APP搜索景区名称团购,2-3小时,全年,"历史爱好者,三国迷,学生",纪念三国时期蜀汉丞相诸葛亮的祠庙，是中国唯一的君臣合祀祠庙,"三国文化,刘备,诸葛亮",https://youimg1.ctrip.com/target/100m1f000001h3kioE67P.jpg
春熙路,四川省,成都,锦江区,西南,成都市锦江区春熙路,103.684456,30.217426,商业街区,现代建筑,购物,其他,地铁：1号线成都西站 | 公交：61路、290路 | 出租车/网约车：搜索景区名称即可到达 | 自驾：导航至'成都XX景区'，景区提供停车场,全天开放,免费,免费,大众点评APP搜索购票 | 携程APP搜索景区名称购票 | 飞猪APP搜索景区名称购票,2-3小时,全年,"购物爱好者,年轻人,游客",成都最繁华的商业街，汇集了众多品牌店、餐厅和购物中心，是成都时尚地标,"购物,美食,IFS熊猫",https://youimg1.ctrip.com/target/100m1f000001h3knoE67U.jpg
锦里古街,四川省,成都,武侯区,西南,成都市武侯区武侯祠大街231号附1号,104.128816,30.330909,"古街,文化",历史文化|民俗风情,购物,其他,地铁：1号线成都西站 | 公交：61路、290路 | 出租车/网约车：搜索景区名称即可到达 | 自驾：导航至'成都XX景区'，景区提供停车场,全天开放,免费,免费,美团APP搜索景区名称预约 | 抖音APP搜索景区名称团购,2-3小时,全年,"游客,美食爱好者,摄影爱好者",成都著名的仿古商业街，与武侯祠相邻，展现川西民居风格和成都民俗文化,"川西建筑,成都小吃,夜景",https://youimg1.ctrip.com/target/100m1f000001h3kjoE67Q.jpg
泸州老窖旅游区,四川省,泸州,江阳区,西南,泸州市江阳区三星街国窖广场,105.45,28.8833,工业旅游|酒文化,历史文化|宗教场所,,其他,公交：186路、366路、321路 | 出租车/网约车：搜索景区名称即可到达 | 自驾：导航至'泸XX景区'，景区提供停车场,09:00-17:00,¥50,收费,携程APP搜索景区名称购票 | 景区官方网站在线预订 | 景区官方微信公众号预约,2-3小时,全年,酒文化爱好者|历史爱好者|游客,泸州老窖是中国浓香型白酒的发源地，拥有国宝窖池群和酿酒作坊，可参观酿酒工艺和品尝原酒,国宝窖池群|浓香型白酒发源地|酿酒工艺体验,https://youimg1.ctrip.com/target/100m1f000001h3mloE69S.jpg
黄荆老林,四川省,泸州,古蔺县,西南,泸州市古蔺县黄荆镇,105.8,28.2,自然风光|原始森林,自然风光,,其他,公交：186路、366路、321路 | 出租车/网约车：搜索景区名称即可到达 | 自驾：导航至'泸XX景区'，景区提供停车场,08:00-18:00,¥58,收费,景区官方微信公众号预约 | 百度地图APP景区门票购买,1-2天,5-10月,自然爱好者|户外爱好者|摄影爱好者,黄荆老林是地球同纬度唯一保存完好的亚热带原始常绿阔叶林区，被誉为北纬28度线上最后的处女地,原始森林|北纬28度|珍稀动植物|瀑布群,https://youimg1.ctrip.com/target/100m1f000001h3mmoE69T.jpg
方山,四川省,泸州,江阳区,西南,泸州市江阳区方山镇,105.3833,28.85,自然风光|佛教文化,自然风光|历史文化|宗教场所,徒步,其他,公交：186路、366路、321路 | 出租车/网约车：搜索景区名称即可到达 | 自驾：导航至'泸XX景区'，景区提供停车场,08:00-18:00,¥20,收费,携程APP搜索景区名称购票 | 同程旅行APP在线购票,半天至1天,全年,登山爱好者|佛教信徒|游客,方山因四面成方形而得名，是蜀中名山，有云峰寺等佛教建筑，是登山和礼佛的好去处,蜀中名山|云峰寺|登山观景,https://youimg1.ctrip.com/target/100m1f000001h3mnoE69U.jpg
稻城亚丁,四川省,甘孜,稻城县,西南,甘孜藏族自治州稻城县香格里拉镇,100.3333,28.45,世界自然遗产|自然保护区,自然风光,,其他,公交：547路、451路 | 出租车/网约车：搜索景区名称即可到达 | 自驾：导航至'甘孜XX景区'，景区提供停车场,07:00-18:00,¥146,收费,携程APP搜索景区名称购票 | 高德地图APP景区门票预订 | 景区官方网站在线预订,2-3天,9-10月,户外爱好者|摄影爱好者|登山爱好者,稻城亚丁被誉为'蓝色星球上的最后一片净土'，有仙乃日、央迈勇、夏诺多吉三座神山，以及牛奶海、五色海等高山湖泊。,蓝色星球最后净土|三神山|牛奶海|五色海|摄影天堂,https://youimg1.ctrip.com/target/100m1f000001h3mioE68Z.jpg
海螺沟,四川省,甘孜,泸定县,西南,甘孜藏族自治州泸定县磨西镇,102.1667,29.5833,冰川|温泉|森林公园,自然风光|宗教场所|园林公园,康养,其他,公交：547路、451路 | 出租车/网约车：搜索景区名称即可到达 | 自驾：导航至'甘孜XX景区'，景区提供停车场,07:00-15:00,¥90,收费,抖音APP搜索景区名称团购 | 百度地图APP景区门票购买 | 美团APP搜索景区名称预约,1-2天,10月-次年4月,自然爱好者|摄影爱好者|温泉爱好者,海螺沟是亚洲最低海拔现代冰川发现地，拥有举世无双的大冰瀑布和大量沸热温冷矿泉。可近距离观赏冰川与原始森林共存的奇观。,低海拔冰川|大冰瀑布|温泉|原始森林|贡嘎雪山,https://youimg1.ctrip.com/target/100m1f000001h3mjoE690.jpg
三苏祠,四川省,眉山,东坡区,西南,眉山市东坡区纱縠行南段,103.8333,30.05,历史建筑|名人故居,历史文化,,其他,公交：189路、463路 | 出租车/网约车：搜索景区名称即可到达 | 自驾：导航至'眉山XX景区'，景区提供停车场,09:00-18:00,¥40,收费,百度地图APP景区门票购买 | 景区官方微信公众号预约,2-3小时,全年,文学爱好者|历史爱好者|学生,三苏祠是北宋著名文学家苏洵、苏轼、苏辙父子三人的故居，始建于明代，是历代文人墨客拜谒、凭吊三苏的文化圣地。,三苏故居|苏轼故里|宋代建筑|文学圣地,https://youimg1.ctrip.com/target/100m1f000001h3mfoE68W.jpg
九皇山,四川省,绵阳,北川羌族自治县,西南,绵阳市北川羌族自治县桂溪镇,104.5167,31.8833,自然风光|羌族文化,自然风光|历史文化,,其他,公交：152路、582路 | 出租车/网约车：搜索景区名称即可到达 | 自驾：导航至'绵阳XX景区'，景区提供停车场,08:00-18:00,¥90,收费,飞猪APP搜索景区名称购票 | 高德地图APP景区门票预订,4-8小时,春秋季节,文化爱好者|摄影爱好者|户外爱好者,九皇山位于成都至九寨沟的旅游环线上，在这里你可以欣赏到高大雄伟的羌家碉楼、古朴悠远的白石贡奉，感受羌人传承几千年的文化。,羌族文化|高空索道|溶洞探险|猿王洞,https://youimg1.ctrip.com/target/100m1f000001h3m9oE68Q.jpg
自贡恐龙博物馆,四川省,自贡,大安区,西南,自贡市大安区燊海井路4段268号,104.7833,29.3833,博物馆|地质公园,历史文化|博物馆|园林公园,,其他,公交：925路、973路、670路、592路 | 出租车/网约车：搜索景区名称即可到达 | 自驾：导航至'自贡XX景区'，景区提供停车场,08:30-17:30,¥40,收费,飞猪APP搜索景区名称购票 | 抖音APP搜索景区名称团购 | 大众点评APP搜索购票,2-3小时,全年,亲子家庭|学生|古生物爱好者,世界三大恐龙遗址博物馆之一，是我国第一座专业性恐龙博物馆，馆藏化石标本几乎囊括了距今2.05-1.35亿年前侏罗纪时期所有已知恐龙种类，是世界上收藏和展示侏罗纪恐龙化石最多的地方之一。,世界三大恐龙遗址博物馆|侏罗纪恐龙化石|古生物研究,https://youimg1.ctrip.com/target/100m1f000001h3m1oE68I.jpg
燊海井,四川省,自贡,大安区,西南,自贡市大安区阮家坝山下,104.7833,29.3833,历史遗迹|工业遗产,自然风光|历史文化,,其他,公交：925路、973路、670路、592路 | 出租车/网约车：搜索景区名称即可到达 | 自驾：导航至'自贡XX景区'，景区提供停车场,08:30-17:30,¥25,收费,高德地图APP景区门票预订 | 美团APP搜索景区名称预约 | 携程APP搜索景区名称购票,1-2小时,全年,历史爱好者|文化爱好者|学生,土法生产井盐的'活化石'，是中国古代钻井工艺成熟的标志。燊海井开凿于清道光三年，井深1001.42米，是世界上第一口超千米深井。,世界第一口超千米深井|土法井盐活化石|清代钻井工艺,https://youimg1.ctrip.com/target/100m1f000001h3m3oE68K.jpg
中国死海,四川省,遂宁,大英县,西南,遂宁市大英县蓬莱镇,105.25,30.6,温泉|休闲度假,自然风光|休闲度假,康养,其他,公交：451路、120路、977路 | 出租车/网约车：搜索景区名称即可到达 | 自驾：导航至'遂宁XX景区'，景区提供停车场,09:00-22:00,¥168,收费,携程APP搜索景区名称购票 | 抖音APP搜索景区名称团购 | 百度地图APP景区门票购买,4-8小时,全年,家庭游|情侣|休闲度假者,中国死海是地下古盐湖，含盐量类似中东死海，可体验漂浮不沉的奇妙感觉，是休闲度假的好去处,死海漂浮|古盐湖|温泉养生,https://youimg1.ctrip.com/target/100m1f000001h3mooE69V.jpg
广德寺,四川省,遂宁,船山区,西南,遂宁市船山区城西2公里,105.5667,30.5167,佛教寺庙|历史文化,历史文化|宗教场所|皇家建筑,,其他,公交：451路、120路、977路 | 出租车/网约车：搜索景区名称即可到达 | 自驾：导航至'遂宁XX景区'，景区提供停车场,08:00-17:30,¥40,收费,同程旅行APP在线购票 | 飞猪APP搜索景区名称购票 | 美团APP搜索景区名称预约,2-3小时,全年,佛教信徒|文化爱好者|游客,广德寺始建于唐代，是中国皇家禅林，被称为西来第一禅林，是观音菩萨的道场,皇家禅林|观音菩萨道场|唐代古刹,https://youimg1.ctrip.com/target/100m1f000001h3mpoE69W.jpg
九寨沟,四川省,阿坝,九寨沟县,西南,阿坝藏族羌族自治州九寨沟县漳扎镇,103.9167,33.25,世界自然遗产|国家公园,自然风光|园林公园,,其他,公交：388路、751路 | 出租车/网约车：搜索景区名称即可到达 | 自驾：导航至'阿坝XX景区'，景区提供停车场,08:00-17:00(旺季)|08:30-17:00(淡季),¥190(旺季)|¥80(淡季),收费,百度地图APP景区门票购买 | 景区官方网站在线预订,1-2天,9-11月(彩林季),自然爱好者|摄影爱好者|家庭游,九寨沟是世界自然遗产、国家重点风景名胜区，以翠海、叠瀑、彩林、雪峰、藏情、蓝冰'六绝'著称于世。被誉为'童话世界'、'人间仙境'。,世界自然遗产|五花海|诺日朗瀑布|彩林|童话世界,https://youimg1.ctrip.com/target/100m1f000001h3mgoE68X.jpg
黄龙风景区,四川省,阿坝,松潘县,西南,阿坝藏族羌族自治州松潘县黄龙乡,103.8333,32.75,世界自然遗产|自然保护区,自然风光,,其他,公交：388路、751路 | 出租车/网约车：搜索景区名称即可到达 | 自驾：导航至'阿坝XX景区'，景区提供停车场,08:00-17:00,¥170(旺季)|¥60(淡季),收费,抖音APP搜索景区名称团购 | 百度地图APP景区门票购买,4-6小时,9-10月,自然爱好者|摄影爱好者|登山爱好者,黄龙以彩池、雪山、峡谷、森林'四绝'著称于世，是世界自然遗产。景区内的五彩池是世界规模最大、海拔最高的露天钙华彩池群。,世界自然遗产|五彩池|钙华地貌|雪山森林,https://youimg1.ctrip.com/target/100m1f000001h3mhoE68Y.jpg
四姑娘山,四川省,阿坝,小金县,西南,阿坝藏族羌族自治州小金县四姑娘山镇,102.9,31.0333,登山|自然风光,自然风光,徒步,其他,公交：388路、751路 | 出租车/网约车：搜索景区名称即可到达 | 自驾：导航至'阿坝XX景区'，景区提供停车场,07:00-17:00,双桥沟¥80|长坪沟¥70|海子沟¥60,收费,百度地图APP景区门票购买 | 携程APP搜索景区名称购票 | 大众点评APP搜索购票,1-3天,6-10月,登山爱好者|户外爱好者|摄影爱好者,四姑娘山由四座连绵不断的山峰组成，主峰幺妹峰海拔6250米，是邛崃山脉的最高峰。被誉为'东方阿尔卑斯'，是登山爱好者的天堂。,东方阿尔卑斯|四座雪峰|登山圣地|高山草甸,https://youimg1.ctrip.com/target/100m1f000001h3mkoE691.jpg
天津之眼摩天轮,天津市,天津市,河北区,华北,天津市河北区三岔河口永乐桥上,117.181,39.156,城市地标|摩天轮,宗教场所|现代建筑|城市观光,,其他,地铁1号线西北角站，公交1路、观光2路、4路、12路、18路、34路、609路、610路、611路、619路、632路、641路、646路、659路、670路、671路、818路、878路、904路,09:30-22:00（每周一上午例行检修，不对外开放，节假日除外）,成人票：日间80/人、夜间100/人；儿童票（1.4米以下）：日间40/人、夜间50/人；老人票（65岁及以上）：日间40/人、夜间50/人；包厢票：日间899-999/厢、夜间1099-1199/厢,收费,大众点评APP搜索购票 | 景区官方微信公众号预约,30-40分钟（旋转一周）,4月-10月，傍晚及夜间最佳,情侣、家庭、朋友、摄影爱好者,天津之眼全称天津永乐桥摩天轮，是世界上唯一建在桥上的摩天轮，兼具观光和交通功用。摩天轮直径110米，最高点距离地面约120米，轮外挂装48个透明轿厢，每舱可乘8人，可同时供384人观光。被誉为'天津之眼'，是天津的地标建筑。,世界唯一桥上摩天轮、360度全景俯瞰天津市区和海河风光、浪漫夜景、天津地标建筑,https://example.com/tianjin-eye.jpg
天津古文化街,天津市,天津市,南开区,华北,天津市南开区通北路,117.181,39.143,历史文化街区,自然风光|历史文化|现代建筑,美食,其他,地铁：4号线天津中心站 | 公交：669路、618路、528路、111路 | 出租车/网约车：搜索景区名称即可到达 | 自驾：导航至'天津XX景区'，景区提供停车场,全天开放,免费（部分景点如天后宫等需单独购票）,收费,百度地图APP景区门票购买 | 大众点评APP搜索购票,2-3小时,全年皆宜，春秋最佳（3-5月、9-11月）,全年龄段、文化爱好者、美食爱好者、购物爱好者,天津古文化街位于天津市南开区，是一条具有百年历史的文化街区。以天后宫为中心，南起水阁大街，北到通北路。街区内保留了大量明清风格的建筑，汇聚了传统的工艺品、地方小吃以及民间艺术表演。可以找到杨柳青年画、泥人张、魏记风筝等众多手工艺品，还能品尝到狗不理包子、煎饼果子、天津麻花等当地经典美食。,百年历史文化街区、明清风格建筑、天津老字号店铺、传统手工艺品（杨柳青年画、泥人张）、天津特色小吃（狗不理包子、耳朵眼炸糕、麻花）、天后宫古建筑,https://example.com/guwenhuajie.jpg
天津五大道文化旅游区,天津市,天津市,和平区,华北,天津市和平区成都道以南，马场道以北，西康路以东，马场道与南京路交口以西,117.204,39.117,历史文化街区|建筑博览,历史文化,,其他,地铁1号线小白楼站、营口道站，公交6、8、13、33、600、606、632、657、800、806、835、904路至民园广场站,全天开放,免费（马车游览约80/人）,收费,飞猪APP搜索景区名称购票 | 景区官方微信公众号预约,2-4小时,4月-5月（海棠花季）、9月-11月（秋季）,建筑爱好者、摄影爱好者、历史文化爱好者、情侣、家庭,五大道是天津市和平区的一片长方形区域，共有22条道路，总长度17公里，总面积1.28平方公里。历史上曾是英租界的'墙外推广界'，遗留了众国各式风貌的建筑2000余栋，其中花园洋房、寄宿公寓900余栋为1949年以前建造，体现了英、法、意、德、西班牙等不同历史时期的建筑风格，被誉为'万国建筑博览馆'。,万国建筑博览馆、2000余栋欧式洋楼、民园广场、庆王府、顾维钧故居、疙瘩楼、海棠花景观（大理道）、马车游览体验,https://example.com/wudadao.jpg
天津意式风情区,天津市,天津市,河北区,华北,天津市河北区五经路、胜利路、博爱道、建国道之间区域,117.2,39.136,历史文化街区|异域风情,历史文化|宗教场所|现代建筑,,其他,地铁2号线建国道站，公交27路、638路、645路、660路、805路、961路博爱道站,全天开放,免费,免费,景区官方微信公众号预约 | 景区官方网站在线预订 | 百度地图APP景区门票购买,1-3小时,全年皆宜，春夏秋最佳,摄影爱好者、情侣、建筑爱好者、历史文化爱好者,天津意式风情区位于天津市河北区，是意大利本土之外保存完好、建筑面积最大的意大利风貌建筑群落。始建于1902年，占地约10万平方米，现存各类风貌建筑76栋，建筑面积达6万平方米。区内建有欧洲不同时期、不同风格的洋楼建筑123栋，包括领事馆、兵营、教堂、花园广场等。马可波罗广场是景区的核心，周边有梁启超故居、曹禺故居、汤玉麟旧宅、李叔同故居等名人故居。,意大利本土外最大意式风貌建筑群、马可波罗广场、和平女神雕像、梁启超故居、曹禺故居、欧式咖啡馆和餐厅、钟书阁网红书店、夜景灯光秀,https://example.com/yishifengqing.jpg
天津盘山风景区,天津市,天津市,蓟州区,华北,天津市蓟州区官庄镇莲花岭村,117.265,40.089,自然风景区|山岳型,自然风光|宗教场所|现代建筑,,其他,地铁：4号线天津中心站 | 公交：669路、618路、528路、111路 | 出租车/网约车：搜索景区名称即可到达 | 自驾：导航至'天津XX景区'，景区提供停车场,07:30-17:00（冬季08:00-16:00）,成人票78/人，学生票/老人票39/人,收费,携程APP搜索景区名称购票 | 抖音APP搜索景区名称团购,3-5小时,4月-10月，10月下旬-11月中旬（红叶季）,登山爱好者、自然爱好者、家庭、摄影爱好者,盘山风景区位于天津市蓟州区西北15公里处，是国家5A级旅游景区，有'京东第一山'之誉。清乾隆皇帝曾32次游历盘山，发出'早知有盘山，何必下江南'的感叹。景区以'五峰八石'、'三盘之胜'而奇特称绝，主峰挂月峰海拔864.4米。三盘胜境包括上盘松胜、中盘石胜、下盘水胜。主要景点有天成寺、万松寺、舍利塔等。,京东第一山、乾隆32次游历、三盘胜境（松胜、石胜、水胜）、挂月峰、天成寺、万松寺、红叶景观（秋季）、入胜/云松/挂月三条客运索道,https://example.com/panshan.jpg
天津瓷房子,天津市,天津市,和平区,华北,天津市和平区赤峰道72号,117.196,39.123,特色建筑|博物馆,自然风光|历史文化|宗教场所,,其他,地铁3号线和平路站，公交1路、9路、35路、50路、600路山东路站,09:00-18:00（17:30停止入场）,成人票50/人，学生票30/人，儿童票（1.2米以下）免费,收费,景区官方网站在线预订 | 飞猪APP搜索景区名称购票,1-2小时,全年皆宜,艺术爱好者、摄影爱好者、建筑爱好者、文化爱好者,天津瓷房子位于天津市和平区赤峰道72号，是一座以古瓷器、汉白玉石雕、水晶、玛瑙等珍贵材料装饰而成的独特建筑。这座建筑原本是一座法式小洋楼，经过主人张连志的精心改造，成为了现在的艺术瑰宝。瓷房子以其独特的外观和丰富的文化内涵，吸引了无数游客前来参观。,数万件古瓷器装饰的法式洋楼、独特的外观设计、珍贵的艺术品收藏、中西合璧建筑风格,https://example.com/cifangzi.jpg
天津黄崖关长城,天津市,天津市,蓟州区,华北,天津市蓟州区下营镇黄崖关村津围公路,117.412,40.228,历史遗迹|长城,自然风光|历史文化,,其他,地铁：4号线天津中心站 | 公交：669路、618路、528路、111路 | 出租车/网约车：搜索景区名称即可到达 | 自驾：导航至'天津XX景区'，景区提供停车场,08:00-17:30（17:00停止入园）,成人票70-75/人，学生票/老人票（60-69岁）40/人，儿童票（1.2米以下）/老人票（70岁以上）免费,收费,美团APP搜索景区名称预约 | 高德地图APP景区门票预订 | 抖音APP搜索景区名称团购,2-4小时,4月-10月，10月-11月（红叶季）,历史爱好者、登山爱好者、摄影爱好者、户外运动爱好者,黄崖关长城位于天津市蓟州区最北端30公里处的东山上，是世界文化遗产，国家首批4A级景区。始建于北齐天保七年（557年），明代由戚继光对其重新设计，将万里长城精华荟萃于一地，具有小而全的特点，被长城专家称为'中国万里长城之缩影'。全长42公里，有楼台66座、敌楼52座、烽火台14座。,世界文化遗产、明代戚继光设计、八卦迷魂阵、万里长城缩影、黄崖夕照奇观、长城博物馆、国际马拉松举办地,https://example.com/huangyaguan.jpg
天津静园,天津市,天津市,和平区,华北,天津市和平区鞍山道70号,117.193,39.124,历史建筑|名人故居,自然风光|历史文化|宗教场所,,其他,地铁：4号线天津中心站 | 公交：669路、618路、528路、111路 | 出租车/网约车：搜索景区名称即可到达 | 自驾：导航至'天津XX景区'，景区提供停车场,09:00-17:30（17:00停止入场）,成人票20/人，学生票/老人票10/人,收费,同程旅行APP在线购票 | 百度地图APP景区门票购买,1-2小时,全年皆宜,历史爱好者、文化爱好者、建筑爱好者,静园位于天津市和平区鞍山道70号，是一座典雅的西式寓所，是末代皇帝溥仪的旧居。这里可以帮助游客了解溥仪的生平，参观当年的办公和居住场所。静园分为主院和西跨院两个小院落，院落中分布着主楼、爱新觉罗溥仪展览馆、静园修复展览馆和游客中心等建筑。,末代皇帝溥仪旧居、西式洋楼建筑、溥仪生平展览、历史文物展示、庭院园林,https://example.com/jingyuan.jpg
天津梨木台自然风景区,天津市,天津市,蓟州区,华北,天津市蓟州区下营镇船舱峪村,117.385,40.183,自然风景区|森林峡谷,自然风光|历史文化,徒步,其他,地铁：4号线天津中心站 | 公交：669路、618路、528路、111路 | 出租车/网约车：搜索景区名称即可到达 | 自驾：导航至'天津XX景区'，景区提供停车场,08:00-17:00（16:30停止入园）,成人票60-70/人（含往返接驳车），学生票/老人票优惠,收费,景区官方微信公众号预约 | 大众点评APP搜索购票 | 抖音APP搜索景区名称团购,3-4小时,4月-10月，10月下旬-11月上旬（红叶季）,自然爱好者、徒步爱好者、摄影爱好者、家庭亲子,梨木台自然风景区位于天津市蓟州区下营镇船舱峪村，被称为'天津的神农架'、'北方小九寨'。景区拥有茂密的森林、清澈的溪流和奇特的岩石，森林覆盖率达90%以上。主要景点包括登天缝、五指山、万卷天书、黄龙潭、梨木台等。景区内还有北齐长城遗址，是徒步探险和亲近自然的绝佳去处。,北方小九寨、原始森林、登天缝栈道、北齐长城遗址、彩石滩、黄龙潭、秋季红叶、负氧离子含量高,https://example.com/limutai.jpg
天津独乐寺,天津市,天津市,蓟州区,华北,天津市蓟州区武定街41号,117.408,40.045,历史古迹|宗教建筑,历史文化|宗教场所,,其他,地铁：4号线天津中心站 | 公交：669路、618路、528路、111路 | 出租车/网约车：搜索景区名称即可到达 | 自驾：导航至'天津XX景区'，景区提供停车场,08:00-17:30（17:00停止售票）,成人票40/人，学生票/老人票20/人,收费,大众点评APP搜索购票 | 高德地图APP景区门票预订,1-2小时,全年皆宜,历史文化爱好者、建筑爱好者、佛教文化爱好者,独乐寺位于天津市蓟州区武定街41号，是中国现存三大辽代寺院之一，也是我国现存最早的木结构楼阁建筑。寺内的观音阁是我国现存最早的木结构楼阁建筑，阁内的观音菩萨像高达16米，造型精美，十分壮观。独乐寺历史悠久，建筑精美，是了解中国古代建筑和佛教文化的重要场所。,中国三大辽代寺院之一、现存最早木结构楼阁建筑、16米高观音像、辽代建筑风格、梁思成考察地,https://example.com/dulesi.jpg
沙坡头旅游景区,宁夏回族自治区,中卫市,沙坡头区,西北,宁夏中卫市沙坡头区迎水桥镇,104.95,37.5,AAAAA级,自然风光,,其他,公交：公交21路 | 自驾：导航至景区停车场 | 出租车/网约车：直接定位景区名称 | 景区接驳车/观光车,旺季8:00-18:00，淡季9:00-17:30,旺季90，淡季40,收费,大众点评APP搜索购票 | 抖音APP搜索景区名称团购 | 飞猪APP搜索景区名称购票,1-2天,全年适宜,全年龄,沙坡头旅游景区位于宁夏中卫市城西16公里处，南靠山峦叠嶂、巍峨雄奇的祁连山余脉香山，北连腾格里沙漠。这里集大漠、黄河、高山、绿洲为一处，具西北风光之雄奇，兼江南景色之秀美。,大漠黄河绿洲高山四景合一，中国最美沙漠景观，治沙奇迹,https://picsum.photos/seed/沙坡头旅游景区_宁夏回族自治区/800/600
须弥山石窟,宁夏回族自治区,固原市,原州区,西北,固原市区西北约60公里处,106.05,36.35,AAAA级,自然风光|历史文化,,其他,公交：公交16路 | 自驾：导航至景区停车场 | 出租车/网约车：直接定位景区名称 | 景区接驳车/观光车,8:30-17:30,60,收费,同程旅行APP在线购票 | 百度地图APP景区门票购买,3-4小时,全年适宜,全年龄,须弥山石窟位于固原市区西北约60公里处，这里在唐代是重要的关隘，同时也是丝绸之路上的重要关口。石窟开凿于北魏时期，一直延续到唐末，共有石窟130多个，造像3500余尊，被誉为"宁夏敦煌"。,宁夏敦煌，丝绸之路佛教艺术，北魏至唐代石窟群,https://picsum.photos/seed/须弥山石窟_宁夏回族自治区/800/600
沙湖旅游区,宁夏回族自治区,石嘴山市,平罗县,西北,宁夏石嘴山市平罗县下沙,106.38,38.83,AAAAA级,自然风光|宗教场所,,其他,公交：公交50路 | 自驾：导航至景区停车场 | 出租车/网约车：直接定位景区名称,夏季9:00-18:00，冬季9:00-17:30,110（含船票）,收费,百度地图APP景区门票购买 | 携程APP搜索景区名称购票,4-5小时,全年适宜,全年龄,沙湖位于宁夏平罗县前进农场境内，距银川市区56公里，开发于1989年，现已成为宁夏旅游资源的后起之秀和全国35大王牌景点之一。景区以自然景观为主体，沙、水、苇、鸟、山五大景源有机结合，构成了独特秀丽景观。,沙水相依，塞上江南明珠，全国35大王牌景点之一,https://picsum.photos/seed/沙湖旅游区_宁夏回族自治区/800/600
镇北堡西部影城,宁夏回族自治区,银川市,西夏区,西北,银川市西夏区镇北堡镇,106.08,38.6,AAAAA级,自然风光|现代建筑,,其他,公交：公交33路 | 自驾：导航至景区停车场 | 出租车/网约车：直接定位景区名称,夏季8:00-18:00，冬季9:00-17:00,80,收费,高德地图APP景区门票预订 | 飞猪APP搜索景区名称购票,3-4小时,全年适宜,全年龄,国家AAAAA级旅游景区。位于银川市西夏区镇北堡镇。距银川市中心区35公里，火车站25公里，河东机场48公里，110国道穿行其间，交通方便，是贺兰山东麓旅游区的亮点。镇北堡西部影城在中国众多的影视城中以古朴、荒凉、原始、粗犷、民间化为特色，在这里拍摄了《红高粱》、《东邪西毒》、《大话西游》等100多部影片，享有"中国电影从这里走向世界"的美誉。,《红高粱》《大话西游》拍摄地，中国电影从这里走向世界，古朴荒凉的西北影视基地,https://picsum.photos/seed/镇北堡西部影城_宁夏回族自治区/800/600
水洞沟遗址,宁夏回族自治区,银川市,灵武市,西北,宁夏银川市灵武市临河镇水洞沟旅游景区,106.55,38.15,AAAAA级,自然风光|历史文化,,其他,公交：公交35路 | 自驾：导航至景区停车场 | 出租车/网约车：直接定位景区名称,8:00-18:00,60,收费,高德地图APP景区门票预订 | 抖音APP搜索景区名称团购,4-5小时,全年适宜,全年龄,水洞沟是中国最早发掘的旧石器时代文化遗址，被誉为"中国史前考古的发祥地"。景区西距银川市19公里，距机场11公里。这里保存着完整的明代长城、藏兵洞等军事防御体系，是了解中国古代军事文化的绝佳场所。,中国史前考古发祥地，明代长城藏兵洞，旧石器时代遗址,https://picsum.photos/seed/水洞沟遗址_宁夏回族自治区/800/600
西夏王陵,宁夏回族自治区,银川市,西夏区,西北,银川市西夏区贺兰山东麓,105.95,38.45,AAAA级,历史文化|皇家建筑|现代建筑,,其他,公交：公交26路 | 自驾：导航至景区停车场 | 出租车/网约车：直接定位景区名称,旺季8:00-18:00，淡季9:00-17:30,85,收费,美团APP搜索景区名称预约 | 景区官方微信公众号预约 | 携程APP搜索景区名称购票,3-4小时,全年适宜,全年龄,西夏王陵是中国现存规模最大、地面遗址最完整的帝王陵园之一，是西夏王朝的皇家陵寝。景区内有9座帝王陵墓和200多座陪葬墓，展现了西夏王朝的历史与文化，被誉为"东方金字塔"。,东方金字塔，中国最大西夏帝王陵园，西夏文化遗址,https://picsum.photos/seed/西夏王陵_宁夏回族自治区/800/600
贺兰山岩画,宁夏回族自治区,银川市,贺兰县,西北,银川市贺兰县贺兰山东麓,106.15,38.65,AAAA级,自然风光|历史文化|民俗风情,,其他,公交：公交36路 | 自驾：导航至景区停车场 | 出租车/网约车：直接定位景区名称 | 景区接驳车/观光车,8:00-18:00,70,收费,高德地图APP景区门票预订 | 大众点评APP搜索购票,2-3小时,全年适宜,全年龄,贺兰山岩画是中国游牧民族的艺术画廊，记录了远古人类在3000至10000年前放牧、狩猎、祭祀、征战、娱舞等生活场景。岩画分布在贺兰山绵延数百里的山崖上，是研究中国古代少数民族历史文化的珍贵资料。,游牧民族艺术画廊，万年岩画遗迹，中国古代少数民族文化,https://picsum.photos/seed/贺兰山岩画_宁夏回族自治区/800/600
曹操运兵道,安徽省,亳州,谯城区,华东,亳州市谯城区人民路,115.77,33.87,4A级景区|历史遗迹,历史文化,,4A,公交：公交48路 | 自驾：导航至景区停车场 | 出租车/网约车：直接定位景区名称,08:00-17:30,40,收费,景区官方网站在线预订 | 同程旅行APP在线购票 | 携程APP搜索景区名称购票,1-2小时,全年,历史文化爱好者、军事爱好者,曹操运兵道是国家4A级旅游景区，被誉为'地下长城'。运兵道双道并行，纵横交错，是曹操为军事需要而修建的地下通道，全长4000余米。,曹操运兵道风景优美，是旅游观光的好去处。,https://picsum.photos/seed/曹操运兵道_安徽省/800/600
天静宫,安徽省,亳州,涡阳县,华东,亳州市涡阳县城北,115.766292,33.863095,4A级景区|道教文化,历史文化|宗教场所,,4A,公交：公交5路 | 自驾：导航至景区停车场 | 出租车/网约车：直接定位景区名称,08:00-17:30,40,收费,携程APP搜索景区名称购票 | 美团APP搜索景区名称预约 | 景区官方网站在线预订,2-3小时,全年,道教信徒、文化爱好者,天静宫是国家4A级旅游景区，始建于东汉年间，是道教鼻祖老子的诞生地、道教之祖庭。宫内有老子殿、三清殿等建筑，是道教信徒朝圣的圣地。,天静宫风景优美，是旅游观光的好去处。,https://picsum.photos/seed/天静宫_安徽省/800/600
花戏楼(2),安徽省,亳州市,谯城区,华东,亳州市谯城区咸宁街一号,115.78,33.88,4A级景区|全国重点文物保护单位,自然风光|宗教场所,,4A,公交：公交16路 | 自驾：导航至景区停车场 | 出租车/网约车：直接定位景区名称,08:00-17:30,约54/人,收费,抖音APP搜索景区名称团购 | 景区官方网站在线预订 | 大众点评APP搜索购票,1-2小时,全年适宜,全年龄,花戏楼位于亳州市谯城区，是全国重点文物保护单位、国家4A级旅游景区。花戏楼原名山陕会馆、大关帝庙，由山西和陕西商人建造。建筑以精美的砖雕、木雕、彩绘而闻名，是亳州古建筑的精华所在。,全国重点文物保护单位；精美绝伦的砖雕、木雕；明清古建筑精品；戏曲文化展示,https://picsum.photos/seed/花戏楼(2)_安徽省/800/600
曹操地下运兵道,安徽省,亳州市,谯城区,华东,亳州市谯城区人民路,115.77,33.87,4A级景区|全国重点文物保护单位,综合景区,,4A,公交：公交21路 | 自驾：导航至景区停车场 | 出租车/网约车：直接定位景区名称,08:00-17:30,约50/人,收费,景区官方网站在线预订 | 百度地图APP景区门票购买 | 景区官方微信公众号预约,1-2小时,全年适宜,全年龄,曹操地下运兵道是中国现存最古老、保存最完整的地下大型军事设施，被誉为"地下长城"。运兵道始建于东汉末年，是曹操为其军事需要而专门修筑的，全长约5.2公里，结构复杂，布局巧妙。,全国重点文物保护单位；"地下长城"；中国现存最古老地下军事设施；三国文化体验,https://picsum.photos/seed/曹操地下运兵道_安徽省/800/600
万佛湖,安徽省,六安,舒城县,华东,六安市舒城县万佛湖镇,116.92,31.45,5A级景区|湖泊风光,自然风光|休闲度假,,5A,公交：公交4路 | 自驾：导航至景区停车场 | 出租车/网约车：直接定位景区名称,08:00-17:00,80,收费,高德地图APP景区门票预订 | 同程旅行APP在线购票,4-8小时,4-10月,家庭游、摄影爱好者、度假游客,万佛湖是国家5A级旅游景区，以湖光山色和众多岛屿著称。湖中有大小岛屿66座，是安徽著名的水利风景区和旅游度假区。,5A级景区、66座岛屿、湖光山色,https://picsum.photos/seed/万佛湖_安徽省/800/600
皖西大裂谷,安徽省,六安,金安区,华东,六安市金安区张店镇,116.296438,31.29182,4A级景区|地质奇观,自然风光|宗教场所,徒步,4A,公交：公交35路 | 自驾：导航至景区停车场 | 出租车/网约车：直接定位景区名称,08:00-17:00,70,收费,景区官方微信公众号预约 | 大众点评APP搜索购票,3-4小时,4-10月,户外爱好者、探险爱好者、摄影爱好者,皖西大裂谷是国家4A级旅游景区，以独特的峡谷地貌著称。裂谷深达百米，两侧峭壁林立，是探险和户外运动的好去处。,峡谷奇观、地质奇观、探险体验,https://picsum.photos/seed/皖西大裂谷_安徽省/800/600
燕子河大峡谷,安徽省,六安,金寨县,华东,六安市金寨县燕子河镇,116.321133,31.297317,4A级景区|峡谷风光,自然风光,摄影|徒步,4A,公交：公交14路 | 自驾：导航至景区停车场 | 出租车/网约车：直接定位景区名称,08:00-17:00,65,收费,百度地图APP景区门票购买 | 景区官方微信公众号预约 | 携程APP搜索景区名称购票,4-6小时,4-10月,户外爱好者、摄影爱好者、探险爱好者,燕子河大峡谷是国家4A级旅游景区，以峡谷、瀑布、奇石著称。景区内有天坑、地缝等奇特地貌，是探险和摄影的好去处。,峡谷奇观、瀑布群、地质奇观,https://picsum.photos/seed/燕子河大峡谷_安徽省/800/600
三河古镇,安徽省,合肥,肥西县,华东,合肥市肥西县三河镇,117.291016,31.843204,5A级景区|古镇,历史文化,,5A,地铁：1号线合肥体育站 | 公交：669路、581路、203路、242路 | 出租车/网约车：搜索景区名称即可到达 | 自驾：导航至'合肥XX景区'，景区提供停车场,全天开放,免费（部分景点收费）,收费,景区官方网站在线预订 | 大众点评APP搜索购票,半天-1天,全年,历史文化爱好者、摄影爱好者、家庭游,三河古镇是中国历史文化名镇，国家5A级旅游景区。古镇因丰乐河、杭埠河、小南河三条河流贯其间而得名，有2500多年历史。镇内保存有大量明清时期的古建筑，是徽派建筑的代表。,千年古镇、徽派建筑、美食文化,https://picsum.photos/seed/三河古镇_安徽省/800/600
包公园,安徽省,合肥,包河区,华东,合肥市包河区芜湖路72号,117.3,31.86,4A级景区|历史文化,历史文化|皇家建筑|园林公园,,4A,地铁：1号线合肥体育站 | 公交：669路、581路、203路、242路 | 出租车/网约车：搜索景区名称即可到达 | 自驾：导航至'合肥XX景区'，景区提供停车场,08:00-17:30,50,收费,美团APP搜索景区名称预约 | 大众点评APP搜索购票,2-3小时,全年,历史文化爱好者、家庭游,包公园是为纪念北宋著名清官包拯而建的园林，国家4A级旅游景区。园内有包公祠、包公墓、清风阁等景点，是了解包公文化的重要场所。,包公文化、园林建筑、历史遗迹,https://picsum.photos/seed/包公园_安徽省/800/600
逍遥津公园,安徽省,合肥,庐阳区,华东,合肥市庐阳区寿春路16号,117.292636,31.880571,4A级景区|城市公园,自然风光|历史文化|宗教场所,,4A,地铁：1号线合肥体育站 | 公交：669路、581路、203路、242路 | 出租车/网约车：搜索景区名称即可到达 | 自驾：导航至'合肥XX景区'，景区提供停车场,全天开放,免费,免费,景区官方微信公众号预约 | 美团APP搜索景区名称预约,1-2小时,全年,市民休闲、亲子游,逍遥津公园是合肥历史悠久的城市公园，因三国时期张辽威震逍遥津的典故而闻名。公园内有湖、岛、山、林等景观，是市民休闲娱乐的好去处。,三国古战场、城市绿肺、亲子休闲,https://picsum.photos/seed/逍遥津公园_安徽省/800/600
安徽博物院,安徽省,合肥,庐阳区,华东,合肥市庐阳区安庆路268号,117.302643,31.881305,4A级景区|博物馆,自然风光|历史文化|博物馆,,4A,地铁：1号线合肥体育站 | 公交：669路、581路、203路、242路 | 出租车/网约车：搜索景区名称即可到达 | 自驾：导航至'合肥XX景区'，景区提供停车场,09:00-17:00（周一闭馆）,免费,免费,美团APP搜索景区名称预约 | 携程APP搜索景区名称购票 | 飞猪APP搜索景区名称购票,2-3小时,全年,历史文化爱好者、学生、家庭游,安徽博物院是安徽省唯一集自然、历史、社教为一体的省级综合类博物馆，国家4A级旅游景区。馆藏文物21万余件，以商周青铜器、汉代画像石、文房四宝等最具特色。,省级博物馆、珍贵文物、徽文化,https://picsum.photos/seed/安徽博物院_安徽省/800/600
李鸿章故居,安徽省,合肥,庐阳区,华东,合肥市庐阳区淮河路步行街中段,117.315817,31.880286,4A级景区|名人故居,历史文化,,4A,地铁：1号线合肥体育站 | 公交：669路、581路、203路、242路 | 出租车/网约车：搜索景区名称即可到达 | 自驾：导航至'合肥XX景区'，景区提供停车场,08:30-17:30,免费,免费,美团APP搜索景区名称预约 | 景区官方微信公众号预约 | 景区官方网站在线预订,1-2小时,全年,历史文化爱好者、古建筑爱好者,李鸿章故居是晚清军政大臣李鸿章的家宅，典型的晚清江淮地区民居建筑。故居由李府和淮系展馆两部分组成，是了解晚清历史和李鸿章生平的重要场所。,晚清名臣故居、历史建筑、淮军文化,https://picsum.photos/seed/李鸿章故居_安徽省/800/600
三河古镇(2),安徽省,合肥市,肥西县,华东,合肥市肥西县南端，地处肥西、庐江、舒城交界处,117.13,31.52,5A级景区|中国历史文化名镇,自然风光|历史文化,美食,5A,地铁：1号线合肥解放站 | 公交：302路、562路、169路、302路 | 出租车/网约车：搜索景区名称即可到达 | 自驾：导航至'合肥XX景区'，景区提供停车场,全天开放,大门票免费，小景点联票约50-70,收费,百度地图APP景区门票购买 | 同程旅行APP在线购票 | 携程APP搜索景区名称购票,半天至1天,全年适宜,全年龄,三河古镇因丰乐河、杭埠河、小南河三河流经而得名，距今已有2500多年历史。古镇总面积2.9平方公里，是典型的水乡古镇，保存有大量明清古建筑，有"千年古镇、风云战场、名人故地、美食天堂"之美誉。,国家5A级旅游景区，免费开放；典型的江淮水乡古镇风貌；保存完好的明清古建筑群；特色美食：三河米饺、三河虾饺等,https://picsum.photos/seed/三河古镇(2)_安徽省/800/600
天柱山,安徽省,安庆,潜山市,华东,安庆市潜山市天柱山镇,117.532191,30.851919,5A级景区|山岳风光,自然风光|园林公园,,5A,公交：公交44路 | 自驾：导航至景区停车场 | 出租车/网约车：直接定位景区名称 | 景区接驳车/观光车,07:00-17:30,130,收费,飞猪APP搜索景区名称购票 | 携程APP搜索景区名称购票 | 抖音APP搜索景区名称团购,4-8小时,4-10月,登山爱好者、摄影爱好者、自然爱好者,天柱山是国家5A级旅游景区、世界地质公园，以雄奇的山峰、幽深的洞穴、清澈的溪流著称。汉武帝曾封其为'南岳'，是安徽三大名山之一。,世界地质公园、汉武帝封南岳、雄奇山峰,https://picsum.photos/seed/天柱山_安徽省/800/600
迎江寺,安徽省,安庆,迎江区,华东,安庆市迎江区沿江东路148号,116.564791,30.123372,4A级景区|佛教寺庙,宗教场所|现代建筑,,4A,公交：公交30路 | 自驾：导航至景区停车场 | 出租车/网约车：直接定位景区名称,07:00-17:30,10,收费,同程旅行APP在线购票 | 美团APP搜索景区名称预约,1-2小时,全年,佛教信徒、历史文化爱好者、摄影爱好者,迎江寺是安庆市著名的佛教寺庙，始建于北宋。寺内的振风塔是安庆的地标，有'万里长江第一塔'之称，登塔可俯瞰长江和安庆全城。,万里长江第一塔、振风塔、佛教文化,https://picsum.photos/seed/迎江寺_安徽省/800/600
菱湖公园,安徽省,安庆,大观区,华东,安庆市大观区菱湖南路,117.495494,30.049054,4A级景区|城市公园,自然风光|园林公园|城市观光,,4A,公交：公交36路 | 自驾：导航至景区停车场 | 出租车/网约车：直接定位景区名称,全天开放,免费,免费,抖音APP搜索景区名称团购 | 景区官方网站在线预订,1-2小时,全年,市民休闲、摄影爱好者、家庭游,菱湖公园是安庆市最大的城市公园，前身是清末时期的私家园林。公园内有菱湖、百花亭等景点，是市民休闲娱乐的重要场所。,城市绿肺、历史园林、湖光山色,https://picsum.photos/seed/菱湖公园_安徽省/800/600
巨石山,安徽省,安庆,宜秀区,华东,安庆市宜秀区罗岭镇,116.924947,30.317741,4A级景区|山岳风光,自然风光|宗教场所|主题乐园,,4A,公交：公交32路 | 自驾：导航至景区停车场 | 出租车/网约车：直接定位景区名称 | 景区接驳车/观光车,08:00-17:30,90,收费,抖音APP搜索景区名称团购 | 同程旅行APP在线购票 | 高德地图APP景区门票预订,4-6小时,4-10月,登山爱好者、情侣、摄影爱好者,巨石山是国家4A级旅游景区，以奇峰怪石著称。山上有520玻璃栈道、心形玻璃观景台等景点，是安庆市著名的爱情主题景区。,奇峰怪石、玻璃栈道、爱情主题,https://picsum.photos/seed/巨石山_安徽省/800/600
天柱山风景区,安徽省,安庆市,潜山市,华东,安庆市潜山市天柱山镇茶庄村,116.47,30.73,5A级景区|世界地质公园|国家级风景名胜区,自然风光|宗教场所|园林公园,,5A,公交：公交48路 | 自驾：导航至景区停车场 | 出租车/网约车：直接定位景区名称 | 景区接驳车/观光车,07:00-17:30,旺季130/人，淡季110/人,收费,大众点评APP搜索购票 | 景区官方微信公众号预约,1-2天,全年适宜,全年龄,天柱山位于安徽省潜山市，是安徽省三大名山之一（黄山、九华山、天柱山），也是世界地质公园。主峰天柱峰海拔1489.8米，因如"擎天一柱"而得名。景区内分布有名崖、奇石、异洞、涧瀑、云海等自然景观。,国家5A级旅游景区；世界地质公园；安徽三大名山之一；"擎天一柱"雄奇景观,https://picsum.photos/seed/天柱山风景区_安徽省/800/600
敬亭山,安徽省,宣城,宣州区,华东,宣城市宣州区昭亭北路,118.75,30.95,4A级景区|山岳风光,自然风光|历史文化|现代建筑,,4A,公交：公交41路 | 自驾：导航至景区停车场 | 出租车/网约车：直接定位景区名称 | 景区接驳车/观光车,08:00-17:30,50,收费,景区官方网站在线预订 | 携程APP搜索景区名称购票,3-4小时,全年,文化爱好者、登山爱好者、摄影爱好者,敬亭山是国家4A级旅游景区，因李白的'相看两不厌，只有敬亭山'而闻名。山上有太白楼、古昭亭等古迹，是宣城的文化地标。,相看两不厌、诗山、李白足迹,https://picsum.photos/seed/敬亭山_安徽省/800/600
桃花潭,安徽省,宣城,泾县,华东,宣城市泾县桃花潭镇,118.15,30.48,4A级景区|自然风光,自然风光|历史文化|宗教场所,赏花,4A,公交：公交20路 | 自驾：导航至景区停车场 | 出租车/网约车：直接定位景区名称,08:00-17:30,70,收费,大众点评APP搜索购票 | 携程APP搜索景区名称购票 | 飞猪APP搜索景区名称购票,2-3小时,全年,文化爱好者、摄影爱好者、家庭游,桃花潭因李白的'桃花潭水深千尺，不及汪伦送我情'而闻名。潭水清澈，两岸青山，是宣城著名的文化景观。,桃花潭风景优美，是旅游观光的好去处。,https://picsum.photos/seed/桃花潭_安徽省/800/600
龙川,安徽省,宣城,绩溪县,华东,宣城市绩溪县瀛洲镇龙川村,118.471096,30.698562,5A级景区|古村落,历史文化,,5A,公交：公交30路 | 自驾：导航至景区停车场 | 出租车/网约车：直接定位景区名称,08:00-17:00,75,收费,美团APP搜索景区名称预约 | 同程旅行APP在线购票 | 高德地图APP景区门票预订,半天-1天,全年,摄影爱好者、文化爱好者、古建筑爱好者,龙川是宣城唯一的5A级旅游景区，是胡姓聚族而居的千年古村落。村内有胡氏宗祠、奕世尚书坊等古迹，是徽派建筑的代表。,龙川风景优美，是旅游观光的好去处。,https://picsum.photos/seed/龙川_安徽省/800/600
查济,安徽省,宣城,泾县,华东,宣城市泾县桃花潭镇查济村,118.455907,30.723658,4A级景区|古村落,自然风光|历史文化,摄影,4A,公交：公交48路 | 自驾：导航至景区停车场 | 出租车/网约车：直接定位景区名称,全天开放,65,收费,同程旅行APP在线购票 | 飞猪APP搜索景区名称购票 | 抖音APP搜索景区名称团购,半天-1天,全年,摄影爱好者、文化爱好者、艺术创作者,查济是中国现存最大的明清古村落，建于唐初。古村依山傍水，小河环绕，处处彰显着山水画般的美好意境，是摄影爱好者的天堂。,查济风景优美，是旅游观光的好去处。,https://picsum.photos/seed/查济_安徽省/800/600
中国宣纸文化园,安徽省,宣城,泾县,华东,宣城市泾县榔桥镇乌溪村,118.421597,30.736602,4A级景区|文化景区,历史文化|博物馆,,4A,公交：公交11路 | 自驾：导航至景区停车场 | 出租车/网约车：直接定位景区名称,08:00-17:30,50,收费,景区官方网站在线预订 | 美团APP搜索景区名称预约,2-3小时,全年,文化爱好者、学生、艺术爱好者,中国宣纸文化园是国家4A级旅游景区，是了解宣纸制作工艺和文化的绝佳场所。园内有宣纸博物馆、宣纸制作体验区等，可以亲手体验宣纸制作。,中国宣纸文化园风景优美，是旅游观光的好去处。,https://picsum.photos/seed/中国宣纸文化园_安徽省/800/600
敬亭山风景区,安徽省,宣城市,宣州区,华东,宣城市宣州区昭亭北路,118.75,30.95,4A级景区|国家森林公园,自然风光|园林公园|城市观光,,4A,公交：公交32路 | 自驾：导航至景区停车场 | 出租车/网约车：直接定位景区名称 | 景区接驳车/观光车,08:00-17:00,旺季50/人，淡季30/人,收费,抖音APP搜索景区名称团购 | 美团APP搜索景区名称预约 | 景区官方网站在线预订,2-4小时,全年适宜,全年龄,敬亭山位于宣城市区北郊，原名昭亭山，晋初为避帝讳改名敬亭山，属黄山支脉。主峰"一峰"海拔317米。李白曾在此留下"相看两不厌，只有敬亭山"的千古名句，被誉为"江南诗山"。,"""江南诗山""；李白""相看两不厌""创作地；诗、佛、茶、酒四大文化；国家森林公园",https://picsum.photos/seed/敬亭山风景区_安徽省/800/600
皇藏峪,安徽省,宿州,萧县,华东,宿州市萧县官桥镇,117.127962,33.476638,4A级景区|森林公园,自然风光|历史文化|宗教场所,,4A,公交：公交35路 | 自驾：导航至景区停车场 | 出租车/网约车：直接定位景区名称,08:00-17:00,60,收费,抖音APP搜索景区名称团购 | 同程旅行APP在线购票 | 景区官方微信公众号预约,4-6小时,4-10月,登山爱好者、历史文化爱好者、自然爱好者,皇藏峪是国家4A级旅游景区、国家森林公园，因刘邦曾在此避难而得名。景区内有瑞云寺、天门寺等古迹，森林覆盖率达96%，是皖北的天然氧吧。,汉文化、原始森林、刘邦避难处,https://picsum.photos/seed/皇藏峪_安徽省/800/600
宿州博物馆,安徽省,宿州,埇桥区,华东,宿州市埇桥区通济一路,116.717498,33.437195,4A级景区|博物馆,历史文化|博物馆,,4A,公交：公交22路 | 自驾：导航至景区停车场 | 出租车/网约车：直接定位景区名称,09:00-17:00（周一闭馆）,免费,免费,高德地图APP景区门票预订 | 美团APP搜索景区名称预约,2-3小时,全年,历史文化爱好者、学生、家庭游,宿州博物馆是国家4A级旅游景区，馆藏文物丰富，以汉文化、运河文化为特色。博物馆建筑宏伟，是了解宿州历史文化的窗口。,宿州博物馆风景优美，是旅游观光的好去处。,https://picsum.photos/seed/宿州博物馆_安徽省/800/600
新汴河风景区,安徽省,宿州,埇桥区,华东,宿州市埇桥区新汴河两岸,116.51763,33.561153,4A级景区|城市公园,自然风光|历史文化|园林公园,,4A,公交：公交41路 | 自驾：导航至景区停车场 | 出租车/网约车：直接定位景区名称 | 景区接驳车/观光车,全天开放,免费,免费,景区官方微信公众号预约 | 景区官方网站在线预订 | 飞猪APP搜索景区名称购票,2-3小时,全年,市民休闲、摄影爱好者、家庭游,新汴河风景区是宿州市的城市湿地公园，沿河打造了风景长廊、生态长廊、文化长廊和休闲长廊，是市民休闲娱乐的重要场所。,新汴河风景区风景优美，是旅游观光的好去处。,https://picsum.photos/seed/新汴河风景区_安徽省/800/600
虞姬文化园,安徽省,宿州,灵璧县,华东,宿州市灵璧县虞姬镇,116.606823,33.638326,4A级景区|文化景区,历史文化|皇家建筑|现代建筑,,4A,公交：公交18路 | 自驾：导航至景区停车场 | 出租车/网约车：直接定位景区名称,08:00-17:30,40,收费,美团APP搜索景区名称预约 | 同程旅行APP在线购票 | 高德地图APP景区门票预订,2-3小时,全年,历史文化爱好者、摄影爱好者、家庭游,虞姬文化园是国家4A级旅游景区，以虞姬墓为核心，分为虞姬文化展示区、霸王别姬休闲广场、霸王文化展示区三大区域，是了解楚汉文化的重要场所。,虞姬文化园风景优美，是旅游观光的好去处。,https://picsum.photos/seed/虞姬文化园_安徽省/800/600
奇石文化园,安徽省,宿州,灵璧县,华东,宿州市灵璧县虞姬大道,116.704183,34.14583,4A级景区|文化景区,历史文化|主题乐园,,4A,公交：公交48路 | 自驾：导航至景区停车场 | 出租车/网约车：直接定位景区名称,08:00-17:30,30,收费,抖音APP搜索景区名称团购 | 景区官方微信公众号预约 | 高德地图APP景区门票预订,2-3小时,全年,文化爱好者、艺术爱好者、摄影爱好者,奇石文化园是国家4A级旅游景区，以灵璧石文化为主题。园内汇聚了中华奇石，与钟馗文化园、虞姬文化园相邻，是了解灵璧石文化的绝佳去处。,奇石文化园风景优美，是旅游观光的好去处。,https://picsum.photos/seed/奇石文化园_安徽省/800/600
皇藏峪国家森林公园,安徽省,宿州市,萧县,华东,宿州市萧县东南25公里处,116.95,34.18,4A级景区|国家森林公园,自然风光|园林公园,,4A,公交：公交12路 | 自驾：导航至景区停车场 | 出租车/网约车：直接定位景区名称,08:00-17:30,旺季约60/人，淡季约40/人,收费,携程APP搜索景区名称购票 | 同程旅行APP在线购票 | 景区官方网站在线预订,2-4小时,全年适宜,全年龄,皇藏峪国家森林公园位于萧县东南，总面积26.5平方公里。相传因汉高祖刘邦称帝前避秦兵追捕躲避于此而得名。景区以"林幽、洞奇、泉清、史厚"著称，是皖北地区罕见的原始次生林带。,国家森林公园；刘邦避难传说；皖北罕见原始森林；皇藏峪蘑菇鸡美食,https://picsum.photos/seed/皇藏峪国家森林公园_安徽省/800/600
九华山,安徽省,池州,青阳县,华东,池州市青阳县九华镇,117.8,30.48,5A级景区|佛教名山,自然风光|历史文化|宗教场所,,5A,公交：公交4路 | 自驾：导航至景区停车场 | 出租车/网约车：直接定位景区名称 | 景区接驳车/观光车,全天开放,160,收费,同程旅行APP在线购票 | 大众点评APP搜索购票,1-2天,全年,佛教信徒、文化爱好者、登山爱好者,九华山是中国佛教四大名山之一，世界地质公园，国家5A级旅游景区。是地藏菩萨的道场，以佛教文化和自然景观著称，有'莲花佛国'之称。,佛教四大名山、地藏菩萨道场、莲花佛国,https://picsum.photos/seed/九华山_安徽省/800/600
牯牛降,安徽省,池州,石台县,华东,池州市石台县大演乡,117.780437,30.484902,4A级景区|自然保护区,自然风光,,4A,公交：公交9路 | 自驾：导航至景区停车场 | 出租车/网约车：直接定位景区名称,08:00-17:00,100,收费,抖音APP搜索景区名称团购 | 美团APP搜索景区名称预约,4-8小时,5-10月,自然爱好者、徒步爱好者、避暑游客,牯牛降是国家4A级旅游景区，被称为'华东最后一片原始森林'。景区森林覆盖率极高，溪流、瀑布、峡谷密布，夏季尤为清凉，是避暑和亲近自然的理想之地。,华东最后一片原始森林、天然氧吧、避暑胜地,https://picsum.photos/seed/牯牛降_安徽省/800/600
杏花村,安徽省,池州,贵池区,华东,池州市贵池区杏花村大道,117.773645,30.463935,4A级景区|文化景区,历史文化,,4A,公交：公交41路 | 自驾：导航至景区停车场 | 出租车/网约车：直接定位景区名称,08:00-17:30,60,收费,高德地图APP景区门票预订 | 美团APP搜索景区名称预约 | 飞猪APP搜索景区名称购票,2-3小时,3-5月,文化爱好者、摄影爱好者、家庭游,杏花村因唐代诗人杜牧的'清明时节雨纷纷，路上行人欲断魂。借问酒家何处有？牧童遥指杏花村'而闻名。景区内有古井、杏花村遗址等景点，是池州的文化名片。,杜牧诗中的杏花村、酒文化、历史文化,https://picsum.photos/seed/杏花村_安徽省/800/600
平天湖,安徽省,池州,贵池区,华东,池州市贵池区平天湖大道,117.825587,30.50924,4A级景区|湖泊风光,自然风光|宗教场所|园林公园,,4A,公交：公交48路 | 自驾：导航至景区停车场 | 出租车/网约车：直接定位景区名称,全天开放,免费,免费,大众点评APP搜索购票 | 景区官方微信公众号预约,2-3小时,全年,市民休闲、摄影爱好者、自然爱好者,平天湖是池州市的城市湿地公园，因李白'水如一匹练，此地即平天'的诗句而得名。湖区生态环境优美，是观鸟、休闲的好去处。,李白诗句中的湖泊、城市湿地、生态观光,https://picsum.photos/seed/平天湖_安徽省/800/600
九华山风景区,安徽省,池州市,青阳县,华东,池州市青阳县九华镇,117.8,30.48,5A级景区|世界地质公园|中国佛教四大名山,自然风光|宗教场所|园林公园,,5A,公交：公交46路 | 自驾：导航至景区停车场 | 出租车/网约车：直接定位景区名称 | 景区接驳车/观光车,全天开放,旺季160/人，淡季140/人,收费,同程旅行APP在线购票 | 携程APP搜索景区名称购票 | 高德地图APP景区门票预订,2-3天,全年适宜,全年龄,九华山位于池州市东南，是中国佛教四大名山之一、世界地质公园、国家5A级旅游景区。唐开元年间，新罗国王子金乔觉来此修行，被认为是地藏菩萨应世，九华山遂成为地藏菩萨道场。景区内有99座山峰，最高峰十王峰海拔1342米。,中国佛教四大名山之一；地藏菩萨道场；世界地质公园；佛教文化与自然景观完美结合,https://picsum.photos/seed/九华山风景区_安徽省/800/600
相山公园,安徽省,淮北,相山区,华东,淮北市相山区相山路1号,116.334288,34.087058,4A级景区|城市公园,自然风光|园林公园|城市观光,,4A,公交：公交31路 | 自驾：导航至景区停车场 | 出租车/网约车：直接定位景区名称 | 景区接驳车/观光车,全天开放,免费,免费,美团APP搜索景区名称预约 | 百度地图APP景区门票购买,2-3小时,全年,市民休闲、登山爱好者、家庭游,相山公园是淮北市最大的综合性公园，国家4A级旅游景区。公园以相山为主体，有奏鸣台、牛鼻洞、饮马池、将军亭等数十处景点，是市民休闲娱乐的好去处。,相山十景、城市绿肺、历史文化,https://picsum.photos/seed/相山公园_安徽省/800/600
隋唐运河古镇,安徽省,淮北,相山区,华东,淮北市相山区南黎路与长山路交口,116.934003,33.677765,4A级景区|古镇,历史文化|宗教场所,,4A,公交：公交29路 | 自驾：导航至景区停车场 | 出租车/网约车：直接定位景区名称,全天开放,免费,免费,飞猪APP搜索景区名称购票 | 抖音APP搜索景区名称团购 | 景区官方网站在线预订,2-3小时,全年,文化爱好者、摄影爱好者、夜游爱好者,隋唐运河古镇是淮北市重点打造的文旅项目，依托隋唐大运河遗址建设。古镇内有五凤三阁、元辰殿、月老神庙等景点，是体验运河文化的好去处。,隋唐运河古镇风景优美，是旅游观光的好去处。,https://picsum.photos/seed/隋唐运河古镇_安徽省/800/600
临涣古城,安徽省,淮北,濉溪县,华东,淮北市濉溪县临涣镇,116.849922,33.900079,4A级景区|古城,历史文化|宗教场所|民俗风情,,4A,公交：公交39路 | 自驾：导航至景区停车场 | 出租车/网约车：直接定位景区名称,全天开放,免费,免费,同程旅行APP在线购票 | 景区官方微信公众号预约,2-4小时,全年,历史文化爱好者、摄影爱好者,临涣古城是淮北市著名的历史文化名镇，有千年历史。古城内有城隍庙、文昌宫等古迹，以临涣茶馆文化闻名，是体验皖北民俗文化的好去处。,临涣古城风景优美，是旅游观光的好去处。,https://picsum.photos/seed/临涣古城_安徽省/800/600
南湖湿地公园,安徽省,淮北,烈山区,华东,淮北市烈山区南湖路,116.428853,33.799552,4A级景区|湿地公园,自然风光|园林公园,,4A,公交：公交35路 | 自驾：导航至景区停车场 | 出租车/网约车：直接定位景区名称,全天开放,免费,免费,美团APP搜索景区名称预约 | 抖音APP搜索景区名称团购,2-3小时,4-10月,自然爱好者、摄影爱好者、市民休闲,南湖湿地公园是在采煤沉陷区建成的国家矿山公园，国家4A级旅游景区。景区内有湖堤春晓等22处景点，是生态修复的典范。,南湖湿地公园风景优美，是旅游观光的好去处。,https://picsum.photos/seed/南湖湿地公园_安徽省/800/600
相山公园(2),安徽省,淮北市,相山区,华东,淮北市相山区相山南路,116.8,33.97,4A级景区|国家森林公园,自然风光|宗教场所|园林公园,,4A,公交：公交32路 | 自驾：导航至景区停车场 | 出租车/网约车：直接定位景区名称 | 景区接驳车/观光车,08:00-18:00,免费,免费,携程APP搜索景区名称购票 | 景区官方微信公众号预约 | 百度地图APP景区门票购买,2-3小时,全年适宜,全年龄,相山公园坐落在淮北市相山南麓，是淮北市唯一的大型综合性风景名胜公园，以"相山十景"而闻名。相山主峰为皖北地区至高点，有奇峰、云洞、林海、苍柏、古寺、汉碑等景观。,国家4A级旅游景区；皖北地区制高点；乾隆题词"惠我南黎"；免费开放,https://picsum.photos/seed/相山公园(2)_安徽省/800/600
八公山,安徽省,淮南,八公山区,华东,淮南市八公山区八公山镇,116.78181,32.767778,4A级景区|山岳风光,自然风光|历史文化|皇家建筑,,4A,公交：公交27路 | 自驾：导航至景区停车场 | 出租车/网约车：直接定位景区名称 | 景区接驳车/观光车,08:00-17:30,40,收费,百度地图APP景区门票购买 | 抖音APP搜索景区名称团购,4-6小时,4-10月,历史文化爱好者、登山爱好者,八公山是国家4A级旅游景区、国家地质公园，以豆腐发源地和淝水之战古战场闻名。山上有淮南王刘安墓、豆腐文化园等景点。,豆腐发源地、淝水之战、地质奇观,https://picsum.photos/seed/八公山_安徽省/800/600
寿县古城,安徽省,淮南,寿县,华东,淮南市寿县古城内,116.962993,32.794586,4A级景区|古城,自然风光|历史文化,,4A,公交：公交33路 | 自驾：导航至景区停车场 | 出租车/网约车：直接定位景区名称,全天开放,免费（部分景点收费）,收费,美团APP搜索景区名称预约 | 高德地图APP景区门票预订,半天-1天,全年,历史文化爱好者、摄影爱好者,寿县古城是中国保存最完好的宋代古城之一，国家4A级旅游景区。古城墙周长7147米，有东门宾阳、南门通淝、西门定湖、北门靖淮四座城门。是楚文化的重要发祥地。,宋代古城墙、楚文化、历史遗迹,https://picsum.photos/seed/寿县古城_安徽省/800/600
焦岗湖,安徽省,淮南,凤台县,华东,淮南市凤台县毛集镇,116.729069,32.985563,4A级景区|湿地公园,自然风光|宗教场所|园林公园,,4A,公交：公交7路 | 自驾：导航至景区停车场 | 出租车/网约车：直接定位景区名称,08:00-17:30,40,收费,高德地图APP景区门票预订 | 飞猪APP搜索景区名称购票 | 抖音APP搜索景区名称团购,2-4小时,4-10月,自然爱好者、摄影爱好者、家庭游,焦岗湖是淮河流域最大的淡水湖泊，国家4A级旅游景区。湖区生态环境优美，是观鸟、垂钓、水上娱乐的好去处，也是《六姊妹》等影视剧的取景地。,焦岗湖风景优美，是旅游观光的好去处。,https://picsum.photos/seed/焦岗湖_安徽省/800/600
龙湖公园,安徽省,淮南,田家庵区,华东,淮南市田家庵区人民南路,116.780314,32.194122,4A级景区|城市公园,自然风光|园林公园|城市观光,,4A,公交：公交12路 | 自驾：导航至景区停车场 | 出租车/网约车：直接定位景区名称,全天开放,免费,免费,高德地图APP景区门票预订 | 同程旅行APP在线购票,2-3小时,全年,市民休闲、亲子游、摄影爱好者,龙湖公园是淮南市最大的综合性公园，园内有龙雕、龙船、迎宾山等景点，号称'龙湖三绝'。公园环境优美，是市民休闲娱乐的重要场所。,龙湖公园风景优美，是旅游观光的好去处。,https://picsum.photos/seed/龙湖公园_安徽省/800/600
八公山风景区,安徽省,淮南市,八公山区,华东,淮南市八公山区八南路,116.83,32.63,4A级景区|国家地质公园|国家森林公园,自然风光|园林公园,,4A,公交：公交38路 | 自驾：导航至景区停车场 | 出租车/网约车：直接定位景区名称 | 景区接驳车/观光车,08:00-17:30,约40/人,收费,高德地图APP景区门票预订 | 飞猪APP搜索景区名称购票 | 景区官方微信公众号预约,2-4小时,全年适宜,全年龄,八公山风景区是国家地质公园、国家森林公园、国家AAAA级旅游区。这里是淝水之战的发生地，留下了"风声鹤唳"、"草木皆兵"等成语典故。汉淮南王刘安在此编纂《淮南子》，并发明了豆腐。,国家地质公园；淝水之战古战场；豆腐发源地；汉文化重镇,https://picsum.photos/seed/八公山风景区_安徽省/800/600
琅琊山,安徽省,滁州,琅琊区,华东,滁州市琅琊区琅琊古道30号,118.32,32.3,4A级景区|山岳风光,自然风光|历史文化|宗教场所,,4A,公交：公交2路 | 自驾：导航至景区停车场 | 出租车/网约车：直接定位景区名称 | 景区接驳车/观光车,07:30-17:30,80,收费,景区官方微信公众号预约 | 同程旅行APP在线购票 | 百度地图APP景区门票购买,4-6小时,4-10月,历史文化爱好者、登山爱好者、家庭游,琅琊山是国家4A级旅游景区，因欧阳修的《醉翁亭记》而闻名天下。山上有醉翁亭、琅琊寺等古迹，是皖东著名的历史文化名山。,醉翁亭记、中国四大名亭、历史文化名山,https://picsum.photos/seed/琅琊山_安徽省/800/600
醉翁亭,安徽省,滁州,琅琊区,华东,滁州市琅琊区琅琊山内,118.325344,32.329936,4A级景区|古建筑,自然风光|历史文化,,4A,公交：公交45路 | 自驾：导航至景区停车场 | 出租车/网约车：直接定位景区名称,07:30-17:30,包含在琅琊山门票内,收费,大众点评APP搜索购票 | 高德地图APP景区门票预订 | 景区官方微信公众号预约,1-2小时,全年,历史文化爱好者、文学爱好者,醉翁亭是中国四大名亭之一，因欧阳修的《醉翁亭记》而闻名。亭子坐落在琅琊山麓，是安徽省著名古迹，宋代大散文家欧阳修曾在此饮酒赋诗。,中国四大名亭、欧阳修、醉翁亭记,https://picsum.photos/seed/醉翁亭_安徽省/800/600
明皇陵,安徽省,滁州,凤阳县,华东,滁州市凤阳县太平乡,118.302598,32.282636,4A级景区|历史遗迹,历史文化|皇家建筑,,4A,公交：公交36路 | 自驾：导航至景区停车场 | 出租车/网约车：直接定位景区名称,08:00-17:30,50,收费,飞猪APP搜索景区名称购票 | 同程旅行APP在线购票 | 景区官方网站在线预订,2-3小时,全年,历史文化爱好者、古建筑爱好者,明皇陵是明太祖朱元璋父母的陵墓，国家4A级旅游景区。陵内有神道、石像生等建筑，是明代皇家陵寝中保存最完整的一座。,明代皇陵、朱元璋父母墓、石刻艺术,https://picsum.photos/seed/明皇陵_安徽省/800/600
狼巷迷谷,安徽省,滁州,凤阳县,华东,滁州市凤阳县殷涧镇,118.295026,32.30536,4A级景区|地质奇观,自然风光|宗教场所,徒步,4A,公交：公交25路 | 自驾：导航至景区停车场 | 出租车/网约车：直接定位景区名称,08:00-17:00,80,收费,高德地图APP景区门票预订 | 大众点评APP搜索购票,3-4小时,4-10月,户外爱好者、探险爱好者、摄影爱好者,狼巷迷谷是国家4A级旅游景区，以独特的峡谷地貌和迷宫般的巷道著称。谷内石壁林立、巷道曲折，是探险和户外运动的好去处。,峡谷迷宫、地质奇观、探险体验,https://picsum.photos/seed/狼巷迷谷_安徽省/800/600
琅琊山风景区,安徽省,滁州市,琅琊区,华东,滁州市琅琊区琅琊古道30号,118.32,32.3,4A级景区|国家级风景名胜区,自然风光|宗教场所,,4A,公交：公交42路 | 自驾：导航至景区停车场 | 出租车/网约车：直接定位景区名称 | 景区接驳车/观光车,08:00-17:30,大门票免费，景点联票约65,收费,飞猪APP搜索景区名称购票 | 抖音APP搜索景区名称团购,2-4小时,全年适宜,全年龄,琅琊山因东晋元帝司马睿王号封而得名，地处滁州市西南，城山一体。这里是"天下第一亭"醉翁亭的所在地，因欧阳修的《醉翁亭记》而闻名天下。景区内有醉翁亭、琅琊寺、南天门等景点。,"""天下第一亭""醉翁亭；欧阳修《醉翁亭记》创作地；大门票免费开放；人文与自然景观交融",https://picsum.photos/seed/琅琊山风景区_安徽省/800/600
芜湖方特,安徽省,芜湖,镜湖区,华东,芜湖市镜湖区银湖北路80号,118.689239,30.875944,5A级景区|主题乐园,自然风光|主题乐园,亲子,5A,公交：公交22路 | 自驾：导航至景区停车场 | 出租车/网约车：直接定位景区名称,09:00-17:30,220-280,收费,百度地图APP景区门票购买 | 大众点评APP搜索购票 | 同程旅行APP在线购票,4-8小时,全年,亲子家庭、年轻人、游乐爱好者,芜湖方特旅游区是中国规模最大的主题乐园之一，国家5A级旅游景区。包含方特欢乐世界、方特梦幻王国、方特东方神画等多个主题园区，是亲子游的热门目的地。,大型主题乐园、亲子游乐、精彩演艺,https://picsum.photos/seed/芜湖方特_安徽省/800/600
马仁奇峰,安徽省,芜湖,繁昌区,华东,芜湖市繁昌区孙村镇,118.365712,30.858837,4A级景区|山岳风光,自然风光,,4A,公交：公交12路 | 自驾：导航至景区停车场 | 出租车/网约车：直接定位景区名称,08:00-17:00,95,收费,百度地图APP景区门票购买 | 抖音APP搜索景区名称团购,4-6小时,4-10月,登山爱好者、户外爱好者、摄影爱好者,马仁奇峰是国家4A级旅游景区，以奇峰、怪石、溶洞、森林著称。景区内有玻璃栈道、玻璃桥等惊险项目，是皖南著名的山岳型景区。,奇峰怪石、玻璃栈道、森林氧吧,https://picsum.photos/seed/马仁奇峰_安徽省/800/600
丫山花海石林,安徽省,芜湖,南陵县,华东,芜湖市南陵县何湾镇,118.19986,31.360096,4A级景区|自然风光,自然风光|宗教场所,摄影,4A,公交：公交31路 | 自驾：导航至景区停车场 | 出租车/网约车：直接定位景区名称 | 景区接驳车/观光车,08:00-17:00,80,收费,大众点评APP搜索购票 | 景区官方微信公众号预约,4-6小时,3-5月,自然爱好者、摄影爱好者、家庭游,丫山花海石林是国家4A级旅游景区，以喀斯特地貌石林景观和牡丹花海著称。春季牡丹盛开时，石林与花海交相辉映，景色壮观。,喀斯特石林、牡丹花海、地质奇观,https://picsum.photos/seed/丫山花海石林_安徽省/800/600
镜湖公园,安徽省,芜湖,镜湖区,华东,芜湖市镜湖区镜湖路,118.404601,31.751334,4A级景区|城市公园,自然风光|园林公园|城市观光,,4A,公交：公交35路 | 自驾：导航至景区停车场 | 出租车/网约车：直接定位景区名称,全天开放,免费,免费,携程APP搜索景区名称购票 | 同程旅行APP在线购票,1-2小时,全年,市民休闲、摄影爱好者、家庭游,镜湖公园是芜湖市最古老的城市公园，因湖面如镜而得名。公园内有镜湖、烟雨墩等景点，是市民休闲娱乐的重要场所。,镜湖公园风景优美，是旅游观光的好去处。,https://picsum.photos/seed/镜湖公园_安徽省/800/600
鸠兹古镇,安徽省,芜湖,鸠江区,华东,芜湖市鸠江区纬二路与徽州路交汇处,118.483045,31.086006,4A级景区|古镇,自然风光|历史文化,购物,4A,公交：公交45路 | 自驾：导航至景区停车场 | 出租车/网约车：直接定位景区名称,全天开放,免费,免费,高德地图APP景区门票预订 | 美团APP搜索景区名称预约,2-3小时,全年,文化爱好者、摄影爱好者、家庭游,鸠兹古镇是芜湖市重点打造的文旅项目，以徽派建筑为主体，集文化展示、休闲娱乐、商业购物于一体，是体验徽文化的好去处。,鸠兹古镇风景优美，是旅游观光的好去处。,https://picsum.photos/seed/鸠兹古镇_安徽省/800/600
芜湖方特旅游区,安徽省,芜湖市,鸠江区,华东,芜湖市鸠江区赤铸山东路,118.43,31.38,5A级景区|主题乐园,自然风光|历史文化|主题乐园,,5A,公交：公交47路 | 自驾：导航至景区停车场 | 出租车/网约车：直接定位景区名称,平日09:30-17:30，周末09:00-18:00,梦幻王国/东方神画约280/人,收费,百度地图APP景区门票购买 | 美团APP搜索景区名称预约,4-8小时,全年适宜,全年龄,芜湖方特旅游区是深圳华强方特文化科技集团打造的重大精品力作，包含方特梦幻王国、方特水上乐园、方特东方神画三大园区。集科幻、动漫、文化、娱乐于一体，是华东地区最大的主题乐园之一。,国家5A级旅游景区；高科技主题乐园；适合亲子游、情侣游；丰富的游乐项目和表演,https://picsum.photos/seed/芜湖方特旅游区_安徽省/800/600
赭山风景区,安徽省,芜湖市,镜湖区,华东,芜湖市镜湖区九华中路345号,118.37,31.34,4A级景区,自然风光|宗教场所|博物馆,,4A,公交：公交46路 | 自驾：导航至景区停车场 | 出租车/网约车：直接定位景区名称 | 景区接驳车/观光车,08:00-17:00,免费,免费,景区官方微信公众号预约 | 景区官方网站在线预订,2-3小时,全年适宜,全年龄,赭山风景区位于芜湖市中心，由赭山公园、陆和村茶艺博物馆和广济寺三部分组成，占地面积约63万平方米。赭山海拔86米，是芜湖市的制高点，登高远眺可俯瞰全城美景。,市中心的城市绿肺；登高俯瞰芜湖全景；千年古刹广济寺；免费开放的市民公园,https://picsum.photos/seed/赭山风景区_安徽省/800/600
龙子湖,安徽省,蚌埠,蚌山区,华东,蚌埠市蚌山区东海大道与环湖西路交界处,117.356461,32.928123,4A级景区|湖泊风光,自然风光|城市观光,,4A,公交：公交46路 | 自驾：导航至景区停车场 | 出租车/网约车：直接定位景区名称,全天开放,免费,免费,飞猪APP搜索景区名称购票 | 美团APP搜索景区名称预约 | 大众点评APP搜索购票,2-3小时,4-10月,市民休闲、家庭游、摄影爱好者,龙子湖风景区是国家4A级旅游景区，位于蚌埠市东郊，由龙湖、曹山、雪华山等组成，呈三山夹一湖的独特地貌。是蚌埠市的城市名片。,城市湖泊、山水风光、休闲娱乐,https://picsum.photos/seed/龙子湖_安徽省/800/600
张公山公园,安徽省,蚌埠,禹会区,华东,蚌埠市禹会区张公山路132号,117.33,32.93,4A级景区|城市公园,自然风光|园林公园|城市观光,亲子,4A,公交：公交22路 | 自驾：导航至景区停车场 | 出租车/网约车：直接定位景区名称 | 景区接驳车/观光车,全天开放,免费,免费,同程旅行APP在线购票 | 携程APP搜索景区名称购票 | 景区官方网站在线预订,2-3小时,全年,亲子家庭、市民休闲,张公山公园是国家4A级旅游景区，因张公山而得名。公园内有山有水，有动物园和游乐设施，是蚌埠市民休闲娱乐的重要场所。,城市公园、动物园、山水景观,https://picsum.photos/seed/张公山公园_安徽省/800/600
蚌埠博物馆,安徽省,蚌埠,蚌山区,华东,蚌埠市蚌山区市民广场西侧,117.308671,32.945182,4A级景区|博物馆,历史文化|博物馆,,4A,公交：公交36路 | 自驾：导航至景区停车场 | 出租车/网约车：直接定位景区名称,09:00-17:00（周一闭馆）,免费,免费,同程旅行APP在线购票 | 美团APP搜索景区名称预约 | 景区官方微信公众号预约,2-3小时,全年,历史文化爱好者、学生、家庭游,蚌埠博物馆是安徽省重要的地市级博物馆，馆藏文物丰富，以淮河文化、双墩文化为特色，是了解蚌埠历史文化的窗口。,蚌埠博物馆风景优美，是旅游观光的好去处。,https://picsum.photos/seed/蚌埠博物馆_安徽省/800/600
涂山,安徽省,蚌埠,禹会区,华东,蚌埠市禹会区涂山路,117.352561,32.94545,4A级景区|山岳风光,自然风光|历史文化,,4A,公交：公交8路 | 自驾：导航至景区停车场 | 出租车/网约车：直接定位景区名称 | 景区接驳车/观光车,08:00-17:30,30,收费,景区官方微信公众号预约 | 携程APP搜索景区名称购票,3-4小时,全年,历史文化爱好者、登山爱好者、家庭游,涂山是蚌埠著名的风景名胜区，因大禹治水三过家门而不入的典故而闻名。山上有禹王宫、启母石等古迹，是了解大禹文化的重要场所。,涂山风景优美，是旅游观光的好去处。,https://picsum.photos/seed/涂山_安徽省/800/600
龙子湖风景区,安徽省,蚌埠市,龙子湖区,华东,蚌埠市龙子湖区东海大道与环湖西路交叉口东南,117.42,32.93,4A级景区|国家级生态示范区,自然风光,,4A,公交：公交50路 | 自驾：导航至景区停车场 | 出租车/网约车：直接定位景区名称 | 景区接驳车/观光车,全天开放,免费,免费,飞猪APP搜索景区名称购票 | 同程旅行APP在线购票,2-4小时,全年适宜,全年龄,龙子湖风景区位于蚌埠市区东部，是国家AAAA级旅游景区、国家级生态示范区。湖面面积是杭州西湖的四倍，西南岸有雪华山，东北岸有曹山，形成"三山夹一湖"的独特地貌。景区内有中国南北分界标志雕塑。,国家4A级旅游景区；中国南北分界线标志；免费开放的城市湖泊；面积是西湖的四倍,https://picsum.photos/seed/龙子湖风景区_安徽省/800/600
天井湖,安徽省,铜陵,铜官区,华东,铜陵市铜官区长江西路181号,117.456382,31.311674,4A级景区|湖泊风光,自然风光|皇家建筑|城市观光,,4A,公交：公交35路 | 自驾：导航至景区停车场 | 出租车/网约车：直接定位景区名称,全天开放,免费,免费,景区官方微信公众号预约 | 抖音APP搜索景区名称团购 | 美团APP搜索景区名称预约,2-3小时,全年,市民休闲、摄影爱好者、家庭游,天井湖是国家4A级旅游景区，因湖中有一口神秘的天井而得名。湖水清澈，湖面波光粼粼，环湖有众多景点，是铜陵市的城市名片。,神秘天井、湖光山色、城市公园,https://picsum.photos/seed/天井湖_安徽省/800/600
浮山,安徽省,铜陵,枞阳县,华东,铜陵市枞阳县浮山镇,117.975825,30.779924,4A级景区|山岳风光,自然风光|历史文化|宗教场所,,4A,公交：公交30路 | 自驾：导航至景区停车场 | 出租车/网约车：直接定位景区名称 | 景区接驳车/观光车,08:00-17:30,80,收费,飞猪APP搜索景区名称购票 | 景区官方微信公众号预约,4-6小时,4-10月,登山爱好者、佛教信徒、摄影爱好者,浮山是国家4A级旅游景区，以火山岩洞和摩崖石刻著称。山上有众多古刹名寺，被誉为'天下第一文山'，是佛教文化和自然景观相结合的胜地。,火山岩洞、摩崖石刻、佛教文化,https://picsum.photos/seed/浮山_安徽省/800/600
大通古镇,安徽省,铜陵,郊区,华东,铜陵市郊区大通镇,117.71927,31.130532,4A级景区|古镇,自然风光|历史文化,,4A,公交：公交38路 | 自驾：导航至景区停车场 | 出租车/网约车：直接定位景区名称,全天开放,免费,免费,抖音APP搜索景区名称团购 | 携程APP搜索景区名称购票,2-3小时,全年,历史文化爱好者、摄影爱好者,大通古镇是长江沿岸的重要商埠，有'小上海'之称。古镇内有澜溪老街、大士阁等古迹，是了解长江航运文化的重要场所。,长江古镇、澜溪老街、航运文化,https://picsum.photos/seed/大通古镇_安徽省/800/600
天井湖风景区,安徽省,铜陵市,铜官区,华东,铜陵市铜官区长江西路1929号,117.82,30.93,4A级景区,自然风光,,4A,公交：公交21路 | 自驾：导航至景区停车场 | 出租车/网约车：直接定位景区名称 | 景区接驳车/观光车,全天开放,免费,免费,同程旅行APP在线购票 | 抖音APP搜索景区名称团购 | 携程APP搜索景区名称购票,2-3小时,全年适宜,全年龄,天井湖风景区是国家4A级旅游景区，总面积1771亩，其中湖面1330亩。景区以湖中终年高出水面2米的地下涌泉"天井"得名，水域分为东湖、南湖和北湖，三湖水面通连，景色优美。,国家4A级旅游景区；免费开放的城市湖泊；独特的"天井"奇观；九曲桥、通天阁等景点,https://picsum.photos/seed/天井湖风景区_安徽省/800/600
八里河,安徽省,阜阳,颍上县,华东,阜阳市颍上县八里河镇,116.28,32.65,5A级景区|自然风光,自然风光|园林公园,,5A,公交：公交15路 | 自驾：导航至景区停车场 | 出租车/网约车：直接定位景区名称,08:00-17:30,90,收费,大众点评APP搜索购票 | 同程旅行APP在线购票 | 百度地图APP景区门票购买,4-6小时,4-10月,家庭游、摄影爱好者、自然爱好者,八里河风景区是国家5A级旅游景区，有'天下第一农民公园'之称。景区分为世界风光、锦绣中华、碧波游览区、鸟语林等部分，是皖北著名的生态旅游景区。,天下第一农民公园、世界风光缩影、生态湿地,https://picsum.photos/seed/八里河_安徽省/800/600
颍州西湖,安徽省,阜阳,颍州区,华东,阜阳市颍州区西湖大道,116.254908,32.637069,4A级景区|湖泊风光,自然风光,,4A,公交：公交38路 | 自驾：导航至景区停车场 | 出租车/网约车：直接定位景区名称,全天开放,免费,免费,抖音APP搜索景区名称团购 | 景区官方微信公众号预约 | 携程APP搜索景区名称购票,2-3小时,全年,市民休闲、摄影爱好者、文化爱好者,颍州西湖是中国四大西湖之一，古代颍河、清河、小汝河、白龙沟四水汇流处。因阜阳在北魏以后称颍州而得名，为唐、明、清历代名胜。,中国四大西湖之一、历史文化、湖光山色,https://picsum.photos/seed/颍州西湖_安徽省/800/600
管仲老街,安徽省,阜阳,颍上县,华东,阜阳市颍上县管仲大道,116.286029,32.659565,4A级景区|历史街区,历史文化|主题乐园,美食,4A,公交：公交29路 | 自驾：导航至景区停车场 | 出租车/网约车：直接定位景区名称,全天开放,免费,免费,同程旅行APP在线购票 | 大众点评APP搜索购票 | 景区官方微信公众号预约,2-3小时,全年,文化爱好者、美食爱好者、摄影爱好者,管仲老街是以春秋名相管仲为主题的文旅街区，国家4A级旅游景区。街区以明清建筑风格为主，是体验管仲文化和品尝美食的好去处。,管仲文化、明清建筑、美食街区,https://picsum.photos/seed/管仲老街_安徽省/800/600
迪沟生态园,安徽省,阜阳,颍上县,华东,阜阳市颍上县迪沟镇,116.307092,32.67977,4A级景区|生态公园,自然风光|宗教场所|园林公园,亲子,4A,公交：公交10路 | 自驾：导航至景区停车场 | 出租车/网约车：直接定位景区名称,08:00-17:30,50,收费,景区官方网站在线预订 | 百度地图APP景区门票购买,3-4小时,4-10月,亲子游、自然爱好者、摄影爱好者,迪沟生态园是国家4A级旅游景区，全国环境优美乡镇。景区以生态湿地为主题，有百鸟园、植物园等景点，是亲子游和生态观光的好去处。,生态湿地、百鸟园、环境优美,https://picsum.photos/seed/迪沟生态园_安徽省/800/600
阜阳生态乐园,安徽省,阜阳,颍泉区,华东,阜阳市颍泉区欧阳修路,116.302803,32.641029,4A级景区|主题乐园,园林公园|主题乐园,亲子,4A,公交：公交36路 | 自驾：导航至景区停车场 | 出租车/网约车：直接定位景区名称,09:00-17:30,80,收费,景区官方网站在线预订 | 高德地图APP景区门票预订,4-8小时,全年,亲子家庭、游乐爱好者,阜阳生态乐园是国家4A级旅游景区，是皖北最大的生态主题乐园。园内有动物园、植物园、游乐设施等，是亲子游的热门目的地。,生态乐园、动物园、亲子游乐,https://picsum.photos/seed/阜阳生态乐园_安徽省/800/600
八里河风景区,安徽省,阜阳市,颍上县,华东,阜阳市颍上县八里河镇,116.28,32.65,5A级景区,宗教场所|园林公园|主题乐园,亲子,5A,公交：公交32路 | 自驾：导航至景区停车场 | 出租车/网约车：直接定位景区名称 | 景区接驳车/观光车,08:00-17:30,约90/人,收费,飞猪APP搜索景区名称购票 | 景区官方微信公众号预约,半天至1天,全年适宜,全年龄,八里河风景区位于阜阳市颍上县，是国家5A级旅游景区。景区内有世界风光、锦绣中华、碧波游览区、鸟语林等景点，被联合国环境规划署授予环保"全球五百佳"称号。景区内还有微缩景观、游乐园、动物园等。,国家5A级旅游景区；联合国"全球五百佳"；世界风光微缩景观；综合性旅游度假区,https://picsum.photos/seed/八里河风景区_安徽省/800/600
采石矶,安徽省,马鞍山,雨山区,华东,马鞍山市雨山区采石镇,123.250411,41.454685,5A级景区|风景名胜,自然风光|历史文化|现代建筑,,5A,公交：公交23路 | 自驾：导航至景区停车场 | 出租车/网约车：直接定位景区名称,08:30-17:30,80,收费,美团APP搜索景区名称预约 | 高德地图APP景区门票预订 | 百度地图APP景区门票购买,4-6小时,4-10月,历史文化爱好者、摄影爱好者,采石矶是国家5A级旅游景区，长江三矶之首，素有'长江第一矶'和'诗仙圣境'之美誉。以李白文化为灵魂，绝壁临江，古迹遍布，是马鞍山的地标性景点。,长江第一矶、李白文化、绝壁临江,https://picsum.photos/seed/采石矶_安徽省/800/600
李白文化园,安徽省,马鞍山,当涂县,华东,马鞍山市当涂县青山西路,122.584975,40.731576,4A级景区|名人故居,自然风光|历史文化|皇家建筑,,4A,公交：公交29路 | 自驾：导航至景区停车场 | 出租车/网约车：直接定位景区名称,08:00-17:30,30,收费,飞猪APP搜索景区名称购票 | 百度地图APP景区门票购买 | 同程旅行APP在线购票,2-3小时,全年,文学爱好者、历史文化爱好者,李白文化园位于当涂县青林山，是唐代大诗人李白的墓园所在地。园内有牌坊、太白祠、李白墓等建筑，与采石矶、天门山形成李白文化旅游线。,李白文化园风景优美，是旅游观光的好去处。,https://picsum.photos/seed/李白文化园_安徽省/800/600
褒禅山,安徽省,马鞍山,含山县,华东,马鞍山市含山县环峰镇,122.891232,40.649417,4A级景区|山岳风光,自然风光|历史文化|宗教场所,,4A,公交：公交37路 | 自驾：导航至景区停车场 | 出租车/网约车：直接定位景区名称 | 景区接驳车/观光车,08:00-17:00,70,收费,景区官方微信公众号预约 | 景区官方网站在线预订,4-6小时,4-10月,登山爱好者、历史文化爱好者,褒禅山是国家4A级旅游景区，因北宋政治家、文学家王安石的名篇《游褒禅山记》而闻名。山上有华阳洞、褒禅寺等景点，是历史文化名山。,褒禅山风景优美，是旅游观光的好去处。,https://picsum.photos/seed/褒禅山_安徽省/800/600
采石矶风景区,安徽省,马鞍山市,雨山区,华东,马鞍山市雨山区采石镇唐贤街1号,118.48,31.68,5A级景区,自然风光|皇家建筑,,5A,公交：公交50路 | 自驾：导航至景区停车场 | 出租车/网约车：直接定位景区名称 | 景区接驳车/观光车,08:00-17:30,约55/人,收费,高德地图APP景区门票预订 | 抖音APP搜索景区名称团购 | 景区官方网站在线预订,2-4小时,全年适宜,全年龄,采石矶位于马鞍山市长江南岸，与城陵矶、燕子矶并称"长江三矶"，采石矶为三矶之首，素有"千古一秀"之美誉。景区以诗仙李白为灵魂，有太白楼、三元洞、林散之艺术馆等景点。,国家5A级旅游景区；"长江三矶"之首；诗仙李白文化；险峻山势与绮丽风光,https://picsum.photos/seed/采石矶风景区_安徽省/800/600
黄山风景区,安徽省,黄山,黄山区,华东,黄山市黄山区汤口镇,118.17,30.13,5A级景区|世界文化与自然遗产,自然风光|历史文化|园林公园,康养,5A,公交：公交18路 | 自驾：导航至景区停车场 | 出租车/网约车：直接定位景区名称 | 景区接驳车/观光车,06:00-17:30,190（旺季）|150（淡季）,收费,大众点评APP搜索购票 | 同程旅行APP在线购票,1-2天,四季皆宜,全年龄段、摄影爱好者、登山爱好者,黄山是世界文化与自然双重遗产，世界地质公园，国家5A级旅游景区。以奇松、怪石、云海、温泉、冬雪'五绝'著称，有'五岳归来不看山，黄山归来不看岳'的美誉。,世界双遗产、五绝奇观、迎客松,https://picsum.photos/seed/黄山风景区_安徽省/800/600
宏村,安徽省,黄山,黟县,华东,黄山市黟县宏村镇,117.63,30,5A级景区|古村落,历史文化,,5A,公交：公交11路 | 自驾：导航至景区停车场 | 出租车/网约车：直接定位景区名称,全天开放,104,收费,抖音APP搜索景区名称团购 | 高德地图APP景区门票预订 | 景区官方微信公众号预约,半天-1天,全年,摄影爱好者、文化爱好者、艺术创作者,宏村是世界文化遗产皖南古村落的重要组成部分，国家5A级旅游景区。村落呈牛形布局，有'中国画里的乡村'之美誉，是徽派建筑的代表。,世界文化遗产、徽派建筑、水墨乡村,https://picsum.photos/seed/宏村_安徽省/800/600
西递,安徽省,黄山,黟县,华东,黄山市黟县西递镇,117.881081,30.094992,5A级景区|古村落,历史文化,赏花,5A,公交：公交29路 | 自驾：导航至景区停车场 | 出租车/网约车：直接定位景区名称,全天开放,104,收费,同程旅行APP在线购票 | 景区官方网站在线预订 | 抖音APP搜索景区名称团购,半天-1天,全年,摄影爱好者、文化爱好者、古建筑爱好者,西递是世界文化遗产皖南古村落的重要组成部分，国家5A级旅游景区。村落以保存完好的明清古建筑群著称，有'桃花源里人家'之美誉。,世界文化遗产、明清古建筑、桃花源里人家,https://picsum.photos/seed/西递_安徽省/800/600
屯溪老街,安徽省,黄山,屯溪区,华东,黄山市屯溪区屯溪老街,117.923595,30.077546,4A级景区|历史街区,历史文化,美食,4A,公交：公交22路 | 自驾：导航至景区停车场 | 出租车/网约车：直接定位景区名称,全天开放,免费,免费,景区官方微信公众号预约 | 百度地图APP景区门票购买,2-3小时,全年,美食爱好者、购物爱好者、摄影爱好者,屯溪老街是中国保存最完整、最具有南宋和明清建筑风格的古代街市，国家4A级旅游景区。街道两旁店铺林立，是品尝徽州美食、购买徽墨歙砚的好去处。,流动的清明上河图、徽派建筑、美食文化,https://picsum.photos/seed/屯溪老街_安徽省/800/600
徽州古城,安徽省,黄山,歙县,华东,黄山市歙县徽城镇,117.905787,30.042058,5A级景区|古城,自然风光|历史文化,,5A,公交：公交29路 | 自驾：导航至景区停车场 | 出租车/网约车：直接定位景区名称,全天开放,100,收费,同程旅行APP在线购票 | 景区官方微信公众号预约,半天-1天,全年,历史文化爱好者、摄影爱好者、古建筑爱好者,徽州古城是中国四大古城之一，国家5A级旅游景区。古城内有许国石坊、斗山街、渔梁坝等古迹，是了解徽州文化的重要场所。,中国四大古城、徽州文化、许国石坊,https://picsum.photos/seed/徽州古城_安徽省/800/600
宏村景区,安徽省,黄山市,黟县,华东,黄山市黟县宏村镇,117.63,30,5A级景区|世界文化遗产,自然风光|历史文化,,5A,公交：公交27路 | 自驾：导航至景区停车场 | 出租车/网约车：直接定位景区名称 | 景区接驳车/观光车,全天开放,约94-104/人,收费,飞猪APP搜索景区名称购票 | 景区官方网站在线预订 | 高德地图APP景区门票预订,2-4小时,全年适宜,全年龄,宏村位于黄山市黟县东北部，是世界文化遗产、国家5A级旅游景区。宏村始建于北宋，是一座奇特的牛形古村落，完好保存明清民居140余幢。村中的月沼、南湖是徽派建筑与水系结合的典范，被誉为"中国画里乡村"。,世界文化遗产；"中国画里乡村"；独特的牛形古村落布局；徽派建筑与水系完美结合,https://picsum.photos/seed/宏村景区_安徽省/800/600
西递景区,安徽省,黄山市,黟县,华东,黄山市黟县西递镇西递村,117.67,29.9,5A级景区|世界文化遗产,历史文化,,5A,公交：公交3路 | 自驾：导航至景区停车场 | 出租车/网约车：直接定位景区名称 | 景区接驳车/观光车,07:00-21:00,约94/人,收费,景区官方网站在线预订 | 大众点评APP搜索购票,2-4小时,全年适宜,全年龄,西递位于黟县东南8公里，是世界文化遗产、国家5A级旅游景区。西递始建于北宋，至今保留明清古民居300余幢，其中保存古朴完整的有124幢。村落以一条纵向的街道和两条沿溪的道路为主要骨架，构成东向为主、向南北延伸的村落街巷系统。,世界文化遗产；"桃花源里人家"；徽派三雕（砖雕、石雕、木雕）精美绝伦；保存最完整的明清古村落之一,https://picsum.photos/seed/西递景区_安徽省/800/600
黄河口生态旅游区,山东省,东营市,垦利区,华东,山东省东营市垦利区黄河口生态旅游区,119.03,37.75,5A级景区|湿地生态|自然风光,自然风光|宗教场所,,5A,公交：公交22路 | 自驾：导航至景区停车场 | 出租车/网约车：直接定位景区名称,08:30-17:00,成人票30/人，联票（含游船）100,收费,美团APP搜索景区名称预约 | 百度地图APP景区门票购买 | 景区官方网站在线预订,半天-1天,全年适宜,全年龄,黄河口生态旅游区位于东营市东北部的黄河入海口，在黄河三角洲国家级自然保护区内，以独有的黄河口湿地生态景观而闻名。这里有独特的河海交汇景观和丰富的湿地生态系统，是鸟类的天堂。,黄河入海口、河海交汇奇观、鸟类天堂、湿地生态、红地毯景观,https://picsum.photos/seed/黄河口生态旅游区_山东省/800/600
黄河口生态旅游区(2),山东省,东营市,垦利区,华东,东营市垦利区黄河口镇,119.0833,37.7667,5A级景区|湿地生态,自然风光|宗教场所,,5A,公交：718路、552路、808路 | 出租车/网约车：搜索景区名称即可到达 | 自驾：导航至'东营XX景区'，景区提供停车场,08:00-17:00,30,收费,同程旅行APP在线购票 | 大众点评APP搜索购票,半天-1天,9-11月,自然爱好者、摄影爱好者、亲子游,黄河口生态旅游区是黄河入海的地方，拥有独特的河口湿地生态系统，是观鸟和观赏河海交汇奇观的胜地。,河海交汇、湿地生态、候鸟迁徙,https://picsum.photos/seed/黄河口生态旅游区(2)_山东省/800/600
竹泉村,山东省,临沂,沂南县,华东,山东省临沂市沂南县铜井镇,118.456,35.587,4A级景区|古村落,自然风光|历史文化,赏花,4A,公交：877路、526路、666路、609路 | 出租车/网约车：搜索景区名称即可到达 | 自驾：导航至'临沂XX景区'，景区提供停车场,08:00-17:30,80/人,收费,抖音APP搜索景区名称团购 | 百度地图APP景区门票购买 | 景区官方微信公众号预约,半天-1天,4-10月,古村落爱好者、摄影爱好者、休闲度假,竹泉村是中国传统古村落，因村中有一清泉，泉边多竹而得名。村落依山而建，竹林环绕，泉水潺潺，是北方难得一见的桃花源式村落。,竹林清泉、古村落、农家乐、北方桃源,https://youimg1.tripcdn.com/target/102d1f000001gqcvq3F3E.jpg
王羲之故居,山东省,临沂,兰山区,华东,山东省临沂市兰山区洗砚池街21号,118.35,35.067,4A级景区|名人故居,综合景区,,4A,公交：877路、526路、666路、609路 | 出租车/网约车：搜索景区名称即可到达 | 自驾：导航至'临沂XX景区'，景区提供停车场,08:30-17:00,30/人,收费,景区官方微信公众号预约 | 同程旅行APP在线购票,1-2小时,全年,书法爱好者、文化爱好者、学生团体,王羲之故居是书圣王羲之的出生地和成长地，有洗砚池、晒书台、琅琊书院等遗迹，是了解王羲之生平和书法艺术的重要场所。,书圣故里、洗砚池、书法艺术、琅琊文化,https://youimg1.tripcdn.com/target/10421f000001gqcvq3F3E.jpg
山东地下大峡谷,山东省,临沂市,沂水县,华东,山东省临沂市沂水县院东头乡,118.62,35.78,4A级景区|溶洞奇观|地质奇观,自然风光|宗教场所,,4A,公交：公交12路 | 自驾：导航至景区停车场 | 出租车/网约车：直接定位景区名称 | 景区接驳车/观光车,08:00-17:00,成人票98/人，漂流票60,收费,景区官方微信公众号预约 | 百度地图APP景区门票购买,2-3小时,全年适宜,全年龄,山东地下大峡谷位于山东省临沂市沂水县，是一座风貌奇特的溶洞王国，是"沂蒙地下地质奇观核心景区"。洞穴沿290-320度方向延伸，形成于约0.65亿年至2.3亿年前，全长6100米，现已开发3100米。,中国最长溶洞漂流、地下地质奇观、喀斯特地貌、恒温18℃,https://picsum.photos/seed/山东地下大峡谷_山东省/800/600
山东地下大峡谷(2),山东省,临沂市,沂水县,华东,临沂市沂水县院东头镇留虎峪村,118.6167,35.7833,4A级景区|溶洞奇观,自然风光|宗教场所,,4A,公交：190路、727路、379路、797路 | 出租车/网约车：搜索景区名称即可到达 | 自驾：导航至'临沂XX景区'，景区提供停车场,08:00-17:00,98,收费,百度地图APP景区门票购买 | 飞猪APP搜索景区名称购票 | 景区官方网站在线预订,2-3小时,全年,家庭出游、探险爱好者、亲子游,山东地下大峡谷是江北第一长洞，洞体总长6100米，已开发3100米，洞内暗河漂流是特色项目。,江北第一长洞、暗河漂流、溶洞奇观,https://picsum.photos/seed/山东地下大峡谷(2)_山东省/800/600
赤山风景区,山东省,威海,荣成市,华东,山东省威海市荣成市石岛管理区,122.45,36.85,4A级景区|山岳海景,自然风光|历史文化|宗教场所,,4A,公交：760路、291路、197路、75路 | 出租车/网约车：搜索景区名称即可到达 | 自驾：导航至'威海XX景区'，景区提供停车场,07:30-17:30,135/人,收费,飞猪APP搜索景区名称购票 | 携程APP搜索景区名称购票 | 抖音APP搜索景区名称团购,半天-1天,4-10月,佛教文化爱好者、海滨度假游客、摄影爱好者,赤山风景区以山海相连的自然风光和佛教文化著称，有赤山法华院、赤山明神、张保皋传记馆等景点。赤山明神高58.8米，是世界最大的锻铜神像。,赤山明神、法华院、山海景观、张保皋文化,https://youimg1.tripcdn.com/target/103e1f000001gqcvq3F3E.jpg
鸡鸣岛,山东省,威海,荣成市,华东,山东省威海市荣成市港西镇鸡鸣岛村,122.55,37.35,4A级景区|海岛景观,自然风光|宗教场所|现代建筑,,4A,公交：760路、291路、197路、75路 | 出租车/网约车：搜索景区名称即可到达 | 自驾：导航至'威海XX景区'，景区提供停车场,全天开放,80/人（含往返船票）,收费,百度地图APP景区门票购买 | 景区官方微信公众号预约 | 同程旅行APP在线购票,半天-1天,5-10月,海岛爱好者、摄影爱好者、亲子家庭,鸡鸣岛是一座原生态海岛，因《爸爸去哪儿》拍摄而闻名。岛上保留了原始渔村风貌，有灯塔、海草房、悬崖咖啡厅等特色景观。,原生态海岛、海草房、悬崖咖啡厅、渔家风情,https://youimg1.tripcdn.com/target/103f1f000001gqcvq3F3E.jpg
海驴岛,山东省,威海,荣成市,华东,山东省威海市荣成市成山镇,122.75,37.4,4A级景区|海岛景观,自然风光|宗教场所,摄影,4A,公交：760路、291路、197路、75路 | 出租车/网约车：搜索景区名称即可到达 | 自驾：导航至'威海XX景区'，景区提供停车场,07:30-17:00（视天气情况）,120/人（含往返船票）,收费,飞猪APP搜索景区名称购票 | 大众点评APP搜索购票,2-4小时,4-8月,观鸟爱好者、摄影爱好者、自然爱好者,海驴岛是海鸥等海鸟的主要栖息地，每年春季有数十万只海鸟在此繁殖。岛上悬崖峭壁，景色壮观，是观鸟和摄影的绝佳去处。,海鸟天堂、海鸥繁殖地、悬崖峭壁、环岛游,https://youimg1.tripcdn.com/target/10401f000001gqcvq3F3E.jpg
刘公岛国家森林公园,山东省,威海,环翠区,华东,山东省威海市环翠区刘公岛,122.191,37.503,国家森林公园,自然风光|园林公园,,其他,公交：760路、291路、197路、75路 | 出租车/网约车：搜索景区名称即可到达 | 自驾：导航至'威海XX景区'，景区提供停车场,07:00-18:00,含在刘公岛景区门票内,收费,飞猪APP搜索景区名称购票 | 景区官方微信公众号预约 | 携程APP搜索景区名称购票,2-3小时,4-10月,自然爱好者、亲子家庭、登山爱好者,刘公岛国家森林公园是刘公岛景区的重要组成部分，森林覆盖率达87%，有梅花鹿等珍稀动物，是天然氧吧和避暑胜地。,天然氧吧、珍稀动物、森林景观、避暑胜地,https://youimg1.tripcdn.com/target/10441f000001gqcvq3F3E.jpg
中国甲午战争博物馆,山东省,威海,环翠区,华东,山东省威海市环翠区刘公岛,122.191,37.503,一级博物馆,历史文化|博物馆,研学,其他,公交：760路、291路、197路、75路 | 出租车/网约车：搜索景区名称即可到达 | 自驾：导航至'威海XX景区'，景区提供停车场,08:30-17:00,含在刘公岛景区门票内,收费,抖音APP搜索景区名称团购 | 大众点评APP搜索购票 | 飞猪APP搜索景区名称购票,2-3小时,全年,爱国主义教育、历史爱好者、学生团体,中国甲午战争博物馆是全国爱国主义教育示范基地，展示了甲午战争的历史背景、战争过程和深远影响，是了解中国近代史的重要场所。,甲午战争历史、爱国主义教育、北洋水师,https://youimg1.tripcdn.com/target/10451f000001gqcvq3F3E.jpg
刘公岛景区,山东省,威海市,环翠区,华东,山东省威海市环翠区海滨北路101-2号,122.18,37.5,5A级景区|海岛风光|历史纪念,自然风光|历史文化,,5A,公交：公交22路 | 自驾：导航至景区停车场 | 出租车/网约车：直接定位景区名称 | 景区接驳车/观光车,07:30-17:30,成人票122/人（含往返船票）,收费,美团APP搜索景区名称预约 | 景区官方网站在线预订,半天-1天,全年适宜,全年龄,刘公岛位于威海湾口，距市区旅游码头2.1海里，面积3.15平方公里，是国家5A级旅游景区。岛上峰峦叠起，植物茂密，森林覆盖率达87%，有"海上仙山"和"世外桃源"的美誉。这里是甲午海战纪念地，有北洋海军提督署等历史遗迹。,甲午海战纪念地、北洋海军基地、海上仙山、国家森林公园,https://picsum.photos/seed/刘公岛景区_山东省/800/600
威海华夏城,山东省,威海市,环翠区,华东,山东省威海市环翠区华夏路1号,122.15,37.42,5A级景区|生态文化|主题公园,自然风光|历史文化|园林公园,,5A,公交：公交12路 | 自驾：导航至景区停车场 | 出租车/网约车：直接定位景区名称,08:00-17:00,成人票98/人,收费,大众点评APP搜索购票 | 飞猪APP搜索景区名称购票 | 美团APP搜索景区名称预约,2-4小时,全年适宜,全年龄,威海华夏城是华夏文旅集团因地就势、蓄水成湖，在矿坑废墟上打造的国家5A级景区，占地面积2700多亩。景区内有华夏第一牌楼、夏园、禹王宫、大型实景演艺《神游华夏》等景点和项目。,矿坑生态修复典范、大型实景演艺、华夏文化主题,https://picsum.photos/seed/威海华夏城_山东省/800/600
刘公岛景区(2),山东省,威海市,环翠区,华东,威海市环翠区刘公岛,122.1833,37.5,5A级景区|海岛风光,自然风光|历史文化,研学,5A,公交：703路、641路、305路、890路 | 出租车/网约车：搜索景区名称即可到达 | 自驾：导航至'威海XX景区'，景区提供停车场,07:30-17:30,122,收费,抖音APP搜索景区名称团购 | 大众点评APP搜索购票,半天-1天,5-10月,历史爱好者、学生、家庭出游,刘公岛是北洋水师诞生地，甲午战争纪念地，岛上保存有大量近代历史遗迹，是重要的爱国主义教育基地。,甲午战争纪念地、北洋水师、海岛风光,https://picsum.photos/seed/刘公岛景区(2)_山东省/800/600
威海华夏城(2),山东省,威海市,环翠区,华东,威海市环翠区华夏路1号,122.1333,37.4333,5A级景区|生态文化,自然风光|历史文化,,5A,威海市区乘公交35、49、50、58路,07:30-17:30,98,收费,美团APP搜索景区名称预约 | 景区官方微信公众号预约 | 飞猪APP搜索景区名称购票,2-4小时,5-10月,家庭出游、文化爱好者、亲子游,威海华夏城是在矿坑废墟上建成的生态环保景区，展示华夏五千年文化，有大型实景演艺《神游华夏》。,生态修复典范、华夏文化、实景演艺,https://picsum.photos/seed/威海华夏城(2)_山东省/800/600
泉城欧乐堡梦幻世界,山东省,德州,齐河县,华东,山东省德州市齐河县祝阿镇旅游路8号,116.764,36.803,4A级景区|主题乐园,自然风光|主题乐园|民俗风情,,4A,公交：563路、394路、949路、298路 | 出租车/网约车：搜索景区名称即可到达 | 自驾：导航至'德XX景区'，景区提供停车场,09:00-17:00（夏季延长至20:30）,220/人,收费,抖音APP搜索景区名称团购 | 百度地图APP景区门票购买 | 同程旅行APP在线购票,4-8小时,4-10月,亲子家庭、年轻人、游乐设施爱好者,泉城欧乐堡梦幻世界是一座大型主题乐园，有过山车、大摆锤、旋转木马等众多游乐设施，还有欧洲风情街和精彩演艺。,过山车、大摆锤、欧洲风情、精彩演艺,https://youimg1.tripcdn.com/target/10311f000001gqcvq3F3E.jpg
泉城欧乐堡动物王国,山东省,德州,齐河县,华东,山东省德州市齐河县祝阿镇旅游路8号,116.764,36.803,4A级景区|野生动物园,园林公园,亲子,4A,公交：563路、394路、949路、298路 | 出租车/网约车：搜索景区名称即可到达 | 自驾：导航至'德XX景区'，景区提供停车场,09:00-17:00,180/人（成人），120/人（儿童）,收费,景区官方网站在线预订 | 大众点评APP搜索购票 | 抖音APP搜索景区名称团购,4-8小时,全年,亲子家庭、动物爱好者、学生团体,泉城欧乐堡动物王国是亚洲规模最大的野生动物园之一，拥有长颈鹿、大象、狮子、老虎等珍稀动物，还有动物表演和互动体验项目。,野生动物园、珍稀动物、动物表演、互动体验,https://youimg1.tripcdn.com/target/10481f000001gqcvq3F3E.jpg
董子园,山东省,德州,德城区,华东,山东省德州市德城区宋官屯街道,116.358,37.45,4A级景区|历史文化,历史文化|园林公园,,4A,公交：563路、394路、949路、298路 | 出租车/网约车：搜索景区名称即可到达 | 自驾：导航至'德XX景区'，景区提供停车场,08:30-17:30,免费,免费,飞猪APP搜索景区名称购票 | 大众点评APP搜索购票 | 同程旅行APP在线购票,1-2小时,全年,文化爱好者、学生团体、休闲游客,董子园是为纪念西汉大儒董仲舒而建的文化公园，有董子读书台、董子祠、儒家文化展示馆等景点，是了解儒家文化的重要场所。,董仲舒纪念地、儒家文化、读书台,https://youimg1.tripcdn.com/target/10491f000001gqcvq3F3E.jpg
泉城欧乐堡梦幻世界(2),山东省,德州市,齐河县,华东,山东省德州市齐河县黄河国际生态城G309国道旁,116.75,36.8,4A级景区|主题乐园|游乐设施,自然风光|主题乐园|休闲度假,,4A,公交：公交8路 | 自驾：导航至景区停车场 | 出租车/网约车：直接定位景区名称,09:00-17:30（周末延长至21:00）,成人票220/人，学生票180,收费,大众点评APP搜索购票 | 高德地图APP景区门票预订 | 百度地图APP景区门票购买,4-8小时,全年适宜,全年龄,泉城欧乐堡梦幻世界位于山东省德州市齐河县黄河国际生态城，属于泉城欧乐堡国际旅游度假区的景区之一，是游乐和演艺项目主题乐园，占地约2000亩。景区包含童话镇、勇者挑战区、梦幻城堡区等主题区域。,大型主题乐园、欧式城堡建筑、刺激游乐设施、亲子游乐,https://picsum.photos/seed/泉城欧乐堡梦幻世界(2)_山东省/800/600
泉城欧乐堡梦幻世界(3),山东省,德州市,齐河县,华东,德州市齐河县黄河国际生态城旅游路08号,116.75,36.8,4A级景区|主题乐园,主题乐园,亲子,4A,济南西站乘公交K906路；自驾沿京台高速,09:00-17:30,220,收费,携程APP搜索景区名称购票 | 景区官方网站在线预订,4-8小时,全年,亲子游、年轻人、家庭出游,泉城欧乐堡梦幻世界是大型主题乐园，拥有各种刺激游乐设施和精彩演艺，是亲子游和年轻人聚会的好去处。,过山车、水上乐园、童话城堡,https://picsum.photos/seed/泉城欧乐堡梦幻世界(3)_山东省/800/600
东夷小镇,山东省,日照,东港区,华东,山东省日照市东港区碧海路77号,119.538,35.425,4A级景区|特色街区,自然风光|历史文化|宗教场所,美食,4A,公交：921路、451路、951路、775路 | 出租车/网约车：搜索景区名称即可到达 | 自驾：导航至'日照XX景区'，景区提供停车场,全天开放,免费,免费,美团APP搜索景区名称预约 | 大众点评APP搜索购票,2-3小时,5-10月,美食爱好者、休闲游客、摄影爱好者,东夷小镇是日照首个集民俗文化和休闲观光于一体的海滨旅游小镇，以渔家文化为主题，有美食街、文创街、酒吧街等特色街区。,渔家文化、海滨美食、文创街区、夜景灯光,https://youimg1.tripcdn.com/target/10301f000001gqcvq3F3E.jpg
五莲山,山东省,日照,五莲县,华东,山东省日照市五莲县五莲山镇,119.285,35.75,4A级景区|山岳景观,自然风光|宗教场所,,4A,公交：921路、451路、951路、775路 | 出租车/网约车：搜索景区名称即可到达 | 自驾：导航至'日照XX景区'，景区提供停车场,08:00-17:00,65/人,收费,飞猪APP搜索景区名称购票 | 携程APP搜索景区名称购票,4-6小时,4-10月,登山爱好者、佛教文化爱好者、摄影爱好者,五莲山因五峰并峙如莲花盛开而得名，是佛教名山，有光明寺、望海楼、天竺峰等景点。山上有大面积野生杜鹃花，春季花开如海。,佛教名山、光明寺、野生杜鹃、五峰并峙,https://youimg1.tripcdn.com/target/10431f000001gqcvq3F3E.jpg
五莲山风景区,山东省,日照市,五莲县,华东,山东省日照市五莲县文化路东首/兰陵路1号,119.2,35.75,4A级景区|山岳风光|佛教文化,自然风光|历史文化|宗教场所,,4A,公交：公交24路 | 自驾：导航至景区停车场 | 出租车/网约车：直接定位景区名称 | 景区接驳车/观光车,08:00-17:30,成人票65/人，索道单程50/人,收费,抖音APP搜索景区名称团购 | 景区官方微信公众号预约,半天-1天,全年适宜,全年龄,五莲山旅游风景区位于鲁东南沿海，总面积68平方公里，由五莲山、九仙山两大风景区组成。景区内自然景观和人文景观众多，以奇、秀、险、怪、幽、旷、奥七大特色著称，素有"台湾花莲，山东五莲"之美誉。,江北第一杜鹃园、皇家寺院光明寺、奇秀不减雁荡、万亩野生杜鹃,https://picsum.photos/seed/五莲山风景区_山东省/800/600
万平口风景区,山东省,日照市,东港区,华东,山东省日照市东港区海曲东路398号,119.53,35.42,4A级景区|海滨风光|休闲度假,自然风光|宗教场所|现代建筑,摄影,4A,公交：公交11路 | 自驾：导航至景区停车场 | 出租车/网约车：直接定位景区名称 | 景区接驳车/观光车,全天开放,免费,免费,百度地图APP景区门票购买 | 高德地图APP景区门票预订,2-3小时,全年适宜,全年龄,万平口风景区位于日照市区东部，是日照市黄金海岸线上的重要景点。景区内有万平口广场、潮汐塔、海滨浴场等设施，是游客来日照观海、听涛、看日出的绝佳去处。,日照黄金海岸、观海听涛、日出观赏、免费海滨浴场,https://picsum.photos/seed/万平口风景区_山东省/800/600
五莲山风景区(2),山东省,日照市,五莲县,华东,日照市五莲县兰陵路1号,119.3,35.75,4A级景区|山岳风光,自然风光|宗教场所,,4A,公交：437路、36路、368路、397路 | 出租车/网约车：搜索景区名称即可到达 | 自驾：导航至'日照XX景区'，景区提供停车场,07:30-17:00,65,收费,美团APP搜索景区名称预约 | 飞猪APP搜索景区名称购票 | 大众点评APP搜索购票,半天-1天,4-10月,登山爱好者、佛教信徒、摄影爱好者,五莲山因五朵莲花峰而得名，是佛教名山，与九仙山隔壑相望，以奇、秀、险、怪、幽、旷著称。,佛教圣地、奇峰怪石、光明寺,https://picsum.photos/seed/五莲山风景区(2)_山东省/800/600
万平口风景区(2),山东省,日照市,东港区,华东,日照市东港区海曲东路398号,119.5333,35.4167,4A级景区|海滨风光,自然风光,,4A,日照市区乘公交1、5、6、32、33、36路,全天开放,免费,免费,百度地图APP景区门票购买 | 景区官方网站在线预订 | 携程APP搜索景区名称购票,2-3小时,6-9月,家庭出游、亲子游、海滨度假,万平口是日照最著名的海滨浴场，有'万只船舶平安入口'之意，沙滩细腻，海水清澈，是夏日避暑胜地。,日照金沙滩、海滨浴场、免费4A景区,https://picsum.photos/seed/万平口风景区(2)_山东省/800/600
泰山风景名胜区,山东省,泰安市,泰山区,华东,山东省泰安市泰山区红门路,117.1,36.25,5A级景区|山岳风光|世界文化与自然双遗产,自然风光|历史文化,,5A,公交：公交46路 | 自驾：导航至景区停车场 | 出租车/网约车：直接定位景区名称 | 景区接驳车/观光车,全天开放,成人票115/人（3日内有效），学生票57,收费,飞猪APP搜索景区名称购票 | 携程APP搜索景区名称购票 | 百度地图APP景区门票购买,1-2天,全年适宜,全年龄,泰山位于山东省中部，隶属于泰安市，绵亘于泰安、济南、淄博三市之间，总面积25000公顷，主峰玉皇顶海拔1545米。泰山自古以来便是我国著名的山峰，有"五岳之首"的美誉。1987年被列入世界文化与自然双重遗产。,五岳之首、世界文化与自然双遗产、日出云海、十八盘、玉皇顶,https://picsum.photos/seed/泰山风景名胜区_山东省/800/600
泰山风景名胜区(2),山东省,泰安市,泰山区,华东,泰安市泰山区红门路45号,117.1,36.25,5A级景区|山岳风光,自然风光|历史文化,,5A,泰山站乘公交3路；泰安站乘公交37路、游4路,全天开放,115,收费,飞猪APP搜索景区名称购票 | 抖音APP搜索景区名称团购,1-2天,4-11月,登山爱好者、文化爱好者、摄影爱好者,泰山是五岳之首，有'天下第一山'之称，是世界文化与自然双遗产，历代帝王封禅祭祀之地。,五岳之首、日出云海、封禅文化,https://picsum.photos/seed/泰山风景名胜区(2)_山东省/800/600
天下第一泉风景区,山东省,济南,历下区,华东,山东省济南市历下区趵突泉南路1号,117.009,36.661,5A级景区|综合景区,自然风光|园林公园,,5A,地铁：3号线济南文化站 | 公交：469路、908路、533路、53路 | 出租车/网约车：搜索景区名称即可到达 | 自驾：导航至'济南XX景区'，景区提供停车场,07:00-19:00（旺季），07:00-18:00（淡季）,联票75/人,收费,景区官方微信公众号预约 | 抖音APP搜索景区名称团购 | 景区官方网站在线预订,1-2天,4-10月,家庭出游、文化爱好者、摄影爱好者,天下第一泉风景区是国家5A级景区，由'一河（护城河）一湖（大明湖）三泉（趵突泉、黑虎泉、五龙潭三大泉群）四园（趵突泉公园、环城公园、五龙潭公园、大明湖风景区）'组成，是济南泉水的精华所在。,5A级景区、泉水文化、大明湖、趵突泉、环城公园,https://youimg1.tripcdn.com/target/10361f000001gqcvq3F3E.jpg
济南方特东方神画,山东省,济南,槐荫区,华东,山东省济南市槐荫区济齐路277号,116.893,36.678,4A级景区|主题乐园,历史文化|主题乐园|现代建筑,,4A,地铁：3号线济南文化站 | 公交：469路、908路、533路、53路 | 出租车/网约车：搜索景区名称即可到达 | 自驾：导航至'济南XX景区'，景区提供停车场,09:30-17:30（周末及节假日延长至21:00）,280/人（成人），210/人（儿童）,收费,抖音APP搜索景区名称团购 | 景区官方微信公众号预约 | 携程APP搜索景区名称购票,4-8小时,全年,亲子家庭、年轻人、文化体验者,济南方特东方神画是一座以中国传统文化为主题的大型高科技主题乐园，有女娲补天、牛郎织女、孟姜女等主题项目，融合了中国神话故事与现代科技。,中国传统文化、高科技游乐、神话故事、精彩演艺,https://youimg1.tripcdn.com/target/10371f000001gqcvq3F3E.jpg
趵突泉景区,山东省,济南市,历下区,华东,山东省济南市历下区趵突泉南路1号,117.02,36.66,5A级景区|泉水文化|历史文化,自然风光|历史文化|园林公园,,5A,地铁：2号线济南北站 | 公交：852路、349路、832路、970路 | 出租车/网约车：搜索景区名称即可到达 | 自驾：导航至'济南XX景区'，景区提供停车场,全年07:00-19:00（夏季延长至21:30）,成人票40/人，学生票20/人,收费,大众点评APP搜索购票 | 同程旅行APP在线购票 | 景区官方网站在线预订,2-3小时,全年适宜,全年龄,趵突泉位于济南市中心繁华地段，南倚千佛山，北靠大明湖，东与泉城广场连接，是以泉水为主题的特色园林。被誉为"天下第一泉"，位于济南"七十二名泉"之首，至今已有2000多年历史。泉水分三股，澄澈清洌，昼夜喷涌。,天下第一泉、济南七十二名泉之首、泉水喷涌奇观、历史文化名园,https://picsum.photos/seed/趵突泉景区_山东省/800/600
大明湖景区,山东省,济南市,历下区,华东,山东省济南市历下区大明湖路271号,117.02,36.67,5A级景区|湖泊风光|历史文化,自然风光|历史文化|园林公园,,5A,地铁：2号线济南北站 | 公交：852路、349路、832路、970路 | 出租车/网约车：搜索景区名称即可到达 | 自驾：导航至'济南XX景区'，景区提供停车场,05:00-22:00,免费开放（超然楼门票40/人）,收费,高德地图APP景区门票预订 | 百度地图APP景区门票购买 | 大众点评APP搜索购票,2-3小时,全年适宜,全年龄,大明湖是济南三大名胜之一，位于市中心偏东北处，是由城内众泉汇流而成的天然湖泊。湖面58公顷，公园面积103.4公顷，平均水深2米左右，最深处达4.5米。湖水清澈，景色秀美，历代文人多有吟咏。,泉城明珠、四面荷花三面柳、一城山色半城湖、免费5A景区,https://picsum.photos/seed/大明湖景区_山东省/800/600
趵突泉景区(2),山东省,济南市,历下区,华东,济南市历下区趵突泉南路1号,117.0205,36.6613,5A级景区|泉水文化,自然风光|历史文化,,5A,地铁：2号线济南北站 | 公交：852路、349路、832路、970路 | 出租车/网约车：搜索景区名称即可到达 | 自驾：导航至'济南XX景区'，景区提供停车场,07:00-19:00,40,收费,高德地图APP景区门票预订 | 景区官方微信公众号预约 | 飞猪APP搜索景区名称购票,2-3小时,4-10月,家庭出游、文化爱好者、摄影爱好者,趵突泉是济南七十二名泉之首，被誉为'天下第一泉'。泉水三窟并发，声如隐雷，势如鼎沸，是中国泉水文化的代表。,天下第一泉、泉水喷涌奇观、李清照纪念堂,https://picsum.photos/seed/趵突泉景区(2)_山东省/800/600
大明湖景区(2),山东省,济南市,历下区,华东,济南市历下区大明湖路271号,117.0256,36.6752,5A级景区|湖泊风光,自然风光|历史文化,,5A,地铁：2号线济南北站 | 公交：852路、349路、832路、970路 | 出租车/网约车：搜索景区名称即可到达 | 自驾：导航至'济南XX景区'，景区提供停车场,全天开放,免费,免费,景区官方微信公众号预约 | 抖音APP搜索景区名称团购 | 同程旅行APP在线购票,2-3小时,4-10月,家庭出游、情侣约会、休闲散步,大明湖是济南三大名胜之一，由城内众泉汇流而成，湖水清澈，景色优美。湖上有历下亭、铁公祠等古迹。,四面荷花三面柳、一城山色半城湖、免费5A景区,https://picsum.photos/seed/大明湖景区(2)_山东省/800/600
曲阜三孔景区（孔庙、孔府、孔林）,山东省,济宁市,曲阜市,华东,山东省济宁市曲阜市鼓楼北街18号,116.98,35.58,5A级景区|儒家文化|世界文化遗产,历史文化|宗教场所|皇家建筑,,5A,公交：公交42路 | 自驾：导航至景区停车场 | 出租车/网约车：直接定位景区名称 | 景区接驳车/观光车,08:30-16:30,三孔联票140/人（孔庙80、孔府60、孔林10），学生票70,收费,百度地图APP景区门票购买 | 携程APP搜索景区名称购票 | 大众点评APP搜索购票,4-8小时,全年适宜,全年龄,曲阜是孔子的故乡，曲阜的孔庙、孔府、孔林是我国历代纪念孔子的圣地，统称"三孔"。孔庙由孔子故居改建而成，是国内著名的祭祀孔子的庙宇；孔府规模仅次于故宫，曾是数百年来孔子嫡系子孙居住的地方；孔林是孔子及其家族的墓地。,世界文化遗产、儒家文化发源地、孔子故里、中国三大古建筑群之一,https://picsum.photos/seed/曲阜三孔景区（孔庙、孔府、孔林）_山东省/800/600
曲阜三孔景区,山东省,济宁市,曲阜市,华东,济宁市曲阜市鼓楼街18号,116.9833,35.6,5A级景区|儒家文化,历史文化|宗教场所,,5A,曲阜东站乘公交K01路；曲阜站乘公交,08:00-17:30,140,收费,飞猪APP搜索景区名称购票 | 百度地图APP景区门票购买,4-8小时,全年,文化爱好者、学生、历史爱好者,曲阜三孔包括孔庙、孔府、孔林，是中国历代纪念孔子、推崇儒学的表征，世界文化遗产。,世界文化遗产、儒家圣地、孔子故里,https://picsum.photos/seed/曲阜三孔景区_山东省/800/600
博山陶瓷琉璃艺术中心,山东省,淄博,博山区,华东,山东省淄博市博山区颜山公园路1号,117.85,36.5,4A级景区|工业旅游,自然风光|历史文化|博物馆,,4A,公交：372路、603路、638路、601路 | 出租车/网约车：搜索景区名称即可到达 | 自驾：导航至'淄博XX景区'，景区提供停车场,08:30-17:00,40/人,收费,百度地图APP景区门票购买 | 飞猪APP搜索景区名称购票,2-3小时,全年,工艺爱好者、文化体验者、亲子家庭,博山陶瓷琉璃艺术中心展示了博山陶瓷和琉璃的悠久历史和精湛工艺，有陶瓷博物馆、琉璃艺术馆、体验工坊等，是了解中国传统工艺的好去处。,陶瓷琉璃艺术、传统工艺、体验工坊、博物馆,https://youimg1.tripcdn.com/target/10461f000001gqcvq3F3E.jpg
周村古商城,山东省,淄博市,周村区,华东,山东省淄博市周村区新建中路1号,117.85,36.8,5A级景区|古商城|历史文化,历史文化|博物馆,,5A,公交：公交22路 | 自驾：导航至景区停车场 | 出租车/网约车：直接定位景区名称,08:00-17:30,成人票70/人（逛街免费，景点联票收费）,收费,抖音APP搜索景区名称团购 | 百度地图APP景区门票购买 | 高德地图APP景区门票预订,3-4小时,全年适宜,全年龄,周村古商城位于周村城区西部，是封建社会后期经济转型中兴起的手工业商业城镇，历经数百年风雨至今仍保存完好。城中街区纵横，店铺林立，建筑风格迥异，被誉为"中国活着的古商业建筑博物馆群"。,天下第一村、金周村、丝绸之乡、明清古街、免费逛街,https://picsum.photos/seed/周村古商城_山东省/800/600
